[
  {
    "originalId": 0,
    "name": "Łowisko Stary Młyn",
    "region": "białystok",
    "city": "Niewodnica Kościelna",
    "address": "Topole 1, 18-106 Niewodnica Kościelna, Polska",
    "latitude": 53.069882955550604,
    "longitude": 23.0592302745738,
    "sortScore": 4.82,
    "pinVerified": "TAK (Skorygowana)",
    "geoportalLink": "https://mapy.geoportal.gov.pl/imap/Imgp_2.html?locale=pl&gui=new&sessionID=&XY=771831.74,585982.62",
    "source": "verified",
    "osmMatch": {
      "osmName": "",
      "osmId": 7619490396,
      "distanceKm": 0.181
    }
  },
  {
    "originalId": 0,
    "name": "Łowisko Fordon",
    "region": "bydgoszcz",
    "city": "Bydgoszcz",
    "address": "Brzegowa 2/2, 85-790 Bydgoszcz, Polska",
    "latitude": 53.1782513,
    "longitude": 18.1713163,
    "sortScore": 5.08,
    "pinVerified": "TAK (Skorygowana)",
    "geoportalLink": "https://mapy.geoportal.gov.pl/imap/Imgp_2.html?locale=pl&gui=new&sessionID=&XY=444633.21,590652.0",
    "source": "curated",
    "osmMatch": null
  },
  {
    "originalId": 0,
    "name": "Łowisko Samsieczno",
    "region": "bydgoszcz",
    "city": "Samsieczno",
    "address": "86-014 Samsieczno, Polska",
    "latitude": 53.221221,
    "longitude": 17.709746,
    "sortScore": 5.02,
    "pinVerified": "TAK (Skorygowana)",
    "geoportalLink": "https://mapy.geoportal.gov.pl/imap/Imgp_2.html?locale=pl&gui=new&sessionID=&XY=413881.72,595886.93",
    "source": "curated",
    "osmMatch": null
  },
  {
    "originalId": 0,
    "name": "Łowisko Otorowo",
    "region": "bydgoszcz",
    "city": "Otorowo",
    "address": "Otorowo 41, 86-050, Polska",
    "latitude": 53.074318,
    "longitude": 18.1681779,
    "sortScore": 4.91,
    "pinVerified": "TAK (Skorygowana)",
    "geoportalLink": "https://mapy.geoportal.gov.pl/imap/Imgp_2.html?locale=pl&gui=new&sessionID=&XY=444289.28,579096.27",
    "source": "curated",
    "osmMatch": null
  },
  {
    "originalId": 0,
    "name": "Łowisko Karpiowe Wilcze",
    "region": "bydgoszcz",
    "city": "Wilcze",
    "address": "Wilcze 21, 86-013, Polska",
    "latitude": 53.371168,
    "longitude": 17.789494,
    "sortScore": 4.78,
    "pinVerified": "TAK (Skorygowana)",
    "geoportalLink": "https://mapy.geoportal.gov.pl/imap/Imgp_2.html?locale=pl&gui=new&sessionID=&XY=419486.78,612469.02",
    "source": "curated",
    "osmMatch": null
  },
  {
    "originalId": 0,
    "name": "Kliś Danuta. PPHU. Łowisko specjalne i kopalnia torfu",
    "region": "bydgoszcz",
    "city": "Bydgoszcz",
    "address": "Łowiskowa 13, 85-436 Bydgoszcz, Polska",
    "latitude": 53.154829,
    "longitude": 17.901997,
    "sortScore": 4.61,
    "pinVerified": "TAK (Skorygowana)",
    "geoportalLink": "https://mapy.geoportal.gov.pl/imap/Imgp_2.html?locale=pl&gui=new&sessionID=&XY=426599.78,588289.51",
    "source": "curated",
    "osmMatch": null
  },
  {
    "originalId": 0,
    "name": "Łowisko Karpiowe Grodzisko",
    "region": "częstochowa",
    "city": "Grodzisko",
    "address": "DW492 5, 42-130 Grodzisko, Polska",
    "latitude": 50.859589,
    "longitude": 18.94854,
    "sortScore": 5.41,
    "pinVerified": "TAK (Skorygowana)",
    "geoportalLink": "https://mapy.geoportal.gov.pl/imap/Imgp_2.html?locale=pl&gui=new&sessionID=&XY=496379.27,332521.17",
    "source": "verified",
    "osmMatch": {
      "osmName": "Łowisko Karpiowe Grodzisko",
      "osmId": 7769028982,
      "distanceKm": 0.178
    }
  },
  {
    "originalId": 0,
    "name": "Łowisko specjalne \"Kawodrza",
    "region": "częstochowa",
    "city": "Częstochowa",
    "address": "42-202 Częstochowa, Polska",
    "latitude": 50.790945,
    "longitude": 19.072309,
    "sortScore": 4.73,
    "pinVerified": "TAK (Skorygowana)",
    "geoportalLink": "https://mapy.geoportal.gov.pl/imap/Imgp_2.html?locale=pl&gui=new&sessionID=&XY=505095.13,324891.44",
    "source": "curated",
    "osmMatch": null
  },
  {
    "originalId": 0,
    "name": "Łowisko lasek",
    "region": "częstochowa",
    "city": "Nieznane",
    "address": "42-263, Polska",
    "latitude": 50.745411399999995,
    "longitude": 19.1575106,
    "sortScore": 4.53,
    "pinVerified": "TAK (Skorygowana)",
    "geoportalLink": "https://mapy.geoportal.gov.pl/imap/Imgp_2.html?locale=pl&gui=new&sessionID=&XY=511109.49,319838.99",
    "source": "verified",
    "osmMatch": {
      "osmName": "",
      "osmId": 12737044790,
      "distanceKm": 0.007
    }
  },
  {
    "originalId": 0,
    "name": "Łowisko Specjalne Zaciszańska Koło PZW Częstochowa Miasto",
    "region": "częstochowa",
    "city": "Częstochowa",
    "address": "Zaciszańska, 42-226 Częstochowa, Polska",
    "latitude": 50.7965188,
    "longitude": 19.0860941,
    "sortScore": 4.4,
    "pinVerified": "TAK (Skorygowana)",
    "geoportalLink": "https://mapy.geoportal.gov.pl/imap/Imgp_2.html?locale=pl&gui=new&sessionID=&XY=506065.75,325512.1",
    "source": "curated",
    "osmMatch": null
  },
  {
    "originalId": 0,
    "name": "Łowisko komercyjne Jantar \"Staw Jantar",
    "region": "gdańsk",
    "city": "Jantar",
    "address": "82-103 Jantar, Polska",
    "latitude": 54.330777,
    "longitude": 19.03449,
    "sortScore": 5.05,
    "pinVerified": "TAK (Skorygowana)",
    "geoportalLink": "https://mapy.geoportal.gov.pl/imap/Imgp_2.html?locale=pl&gui=new&sessionID=&XY=502242.17,718518.82",
    "source": "curated",
    "osmMatch": null
  },
  {
    "originalId": 0,
    "name": "Łowisko sportowe Sazan",
    "region": "gdańsk",
    "city": "Szpon",
    "address": "Szpon 13, 83-403, Polska",
    "latitude": 54.186442,
    "longitude": 18.205622,
    "sortScore": 4.92,
    "pinVerified": "TAK (Skorygowana)",
    "geoportalLink": "https://mapy.geoportal.gov.pl/imap/Imgp_2.html?locale=pl&gui=new&sessionID=&XY=448177.92,702754.94",
    "source": "curated",
    "osmMatch": null
  },
  {
    "originalId": 0,
    "name": "Łowisko Karczemka - Łowisko Wędkarskie",
    "region": "gdańsk",
    "city": "Łęczyce",
    "address": "Rozłazino 94, 84-218 Łęczyce, Polska",
    "latitude": 54.529618,
    "longitude": 17.870539,
    "sortScore": 4.83,
    "pinVerified": "TAK (Skorygowana)",
    "geoportalLink": "https://mapy.geoportal.gov.pl/imap/Imgp_2.html?locale=pl&gui=new&sessionID=&XY=426930.75,741222.94",
    "source": "curated",
    "osmMatch": null
  },
  {
    "originalId": 0,
    "name": "Zbiornik retencyjny Subisława",
    "region": "gdańsk",
    "city": "Gdańsk",
    "address": "80-001 Gdańsk, Polska",
    "latitude": 54.4157332,
    "longitude": 18.5755195,
    "sortScore": 4.81,
    "pinVerified": "TAK (Skorygowana)",
    "geoportalLink": "https://mapy.geoportal.gov.pl/imap/Imgp_2.html?locale=pl&gui=new&sessionID=&XY=472461.82,728051.25",
    "source": "verified",
    "osmMatch": {
      "osmName": "Baits.pl",
      "osmId": 7322099685,
      "distanceKm": 0.811
    }
  },
  {
    "originalId": 0,
    "name": "Zbiornik retencyjny Chłopska",
    "region": "gdańsk",
    "city": "Gdańsk",
    "address": "Chłopska, 80-350 Gdańsk, Polska",
    "latitude": 54.4181971,
    "longitude": 18.5849408,
    "sortScore": 4.8,
    "pinVerified": "TAK (Skorygowana)",
    "geoportalLink": "https://mapy.geoportal.gov.pl/imap/Imgp_2.html?locale=pl&gui=new&sessionID=&XY=473074.64,728321.68",
    "source": "verified",
    "osmMatch": {
      "osmName": "Baits.pl",
      "osmId": 7322099685,
      "distanceKm": 0.529
    }
  },
  {
    "originalId": 0,
    "name": "Łowisko wędkarskie",
    "region": "gdańsk",
    "city": "Przyjaźń",
    "address": "Łapińska 52, 83-331 Przyjaźń, Polska",
    "latitude": 54.301426,
    "longitude": 18.410844,
    "sortScore": 4.75,
    "pinVerified": "TAK (Skorygowana)",
    "geoportalLink": "https://mapy.geoportal.gov.pl/imap/Imgp_2.html?locale=pl&gui=new&sessionID=&XY=461672.34,715413.5",
    "source": "curated",
    "osmMatch": null
  },
  {
    "originalId": 0,
    "name": "Zbiornik Retencyjny Ogrodowa",
    "region": "gdańsk",
    "city": "Gdańsk",
    "address": "Ogrodowa 1, 80-283 Gdańsk, Polska",
    "latitude": 54.369999299999996,
    "longitude": 18.5722269,
    "sortScore": 4.59,
    "pinVerified": "TAK (Skorygowana)",
    "geoportalLink": "https://mapy.geoportal.gov.pl/imap/Imgp_2.html?locale=pl&gui=new&sessionID=&XY=472217.33,722965.4",
    "source": "curated",
    "osmMatch": null
  },
  {
    "originalId": 0,
    "name": "Zbiornik retencyjny Orłowska",
    "region": "gdańsk",
    "city": "Gdańsk",
    "address": "Unnamed Road, 80-001 Gdańsk, Polska",
    "latitude": 54.420968,
    "longitude": 18.588921,
    "sortScore": 4.48,
    "pinVerified": "TAK (Skorygowana)",
    "geoportalLink": "https://mapy.geoportal.gov.pl/imap/Imgp_2.html?locale=pl&gui=new&sessionID=&XY=473334.63,728628.38",
    "source": "verified",
    "osmMatch": {
      "osmName": "Baits.pl",
      "osmId": 7322099685,
      "distanceKm": 0.542
    }
  },
  {
    "originalId": 0,
    "name": "Łowisko / jezioro Okuniewo - \"Taka ryba\" - Jankowski Krzysztof",
    "region": "gdańsk",
    "city": "Kamień",
    "address": "Okuniewo 1, 84-217 Kamień, Polska",
    "latitude": 54.486532,
    "longitude": 18.273246,
    "sortScore": 4.46,
    "pinVerified": "TAK (Skorygowana)",
    "geoportalLink": "https://mapy.geoportal.gov.pl/imap/Imgp_2.html?locale=pl&gui=new&sessionID=&XY=452933.36,736086.61",
    "source": "curated",
    "osmMatch": null
  },
  {
    "originalId": 0,
    "name": "Staw",
    "region": "gdańsk",
    "city": "Gdańsk",
    "address": "80-125 Gdańsk, Polska",
    "latitude": 54.3403249,
    "longitude": 18.580539299999998,
    "sortScore": 4.45,
    "pinVerified": "TAK (Skorygowana)",
    "geoportalLink": "https://mapy.geoportal.gov.pl/imap/Imgp_2.html?locale=pl&gui=new&sessionID=&XY=472737.56,719661.4",
    "source": "curated",
    "osmMatch": null
  },
  {
    "originalId": 0,
    "name": "Łowisko Nowa Przyjaźń",
    "region": "gdańsk",
    "city": "Przyjaźń",
    "address": "Jeziorna 46, 83-331 Przyjaźń, Polska",
    "latitude": 54.294839,
    "longitude": 18.395041,
    "sortScore": 4.29,
    "pinVerified": "TAK (Skorygowana)",
    "geoportalLink": "https://mapy.geoportal.gov.pl/imap/Imgp_2.html?locale=pl&gui=new&sessionID=&XY=460638.0,714689.52",
    "source": "curated",
    "osmMatch": null
  },
  {
    "originalId": 0,
    "name": "Łowisko Jaguar Gdańsk",
    "region": "gdańsk",
    "city": "Gdańsk",
    "address": "Budowlanych 49/5, 80-298 Gdańsk, Polska",
    "latitude": 54.3634765,
    "longitude": 18.4847868,
    "sortScore": 3.57,
    "pinVerified": "TAK (Skorygowana)",
    "geoportalLink": "https://mapy.geoportal.gov.pl/imap/Imgp_2.html?locale=pl&gui=new&sessionID=&XY=466533.08,722277.84",
    "source": "curated",
    "osmMatch": null
  },
  {
    "originalId": 0,
    "name": "Łowisko Kłodzionko - sportowe łowisko wędkarskie - wędkowanie i noclegi - Kaszuby, Pomorskie",
    "region": "gdynia",
    "city": "Kłodno",
    "address": "Kłodno 1, 83-320, Polska",
    "latitude": 54.2076551,
    "longitude": 17.753764,
    "sortScore": 5.55,
    "pinVerified": "TAK (Skorygowana)",
    "geoportalLink": "https://mapy.geoportal.gov.pl/imap/Imgp_2.html?locale=pl&gui=new&sessionID=&XY=418743.31,705540.02",
    "source": "curated",
    "osmMatch": null
  },
  {
    "originalId": 0,
    "name": "Łowisko Gniewino Sklep wędkarski REEL",
    "region": "gdynia",
    "city": "Gniewino",
    "address": "Słoneczna 45, 84-250 Gniewino, Polska",
    "latitude": 54.7041336,
    "longitude": 18.0097889,
    "sortScore": 5.4,
    "pinVerified": "TAK (Skorygowana)",
    "geoportalLink": "https://mapy.geoportal.gov.pl/imap/Imgp_2.html?locale=pl&gui=new&sessionID=&XY=436212.61,760499.12",
    "source": "verified",
    "osmMatch": {
      "osmName": "",
      "osmId": 9768845701,
      "distanceKm": 0.147
    }
  },
  {
    "originalId": 0,
    "name": "Agroturystyka Karasiowo - Łowisko i Noclegi Kaszuby",
    "region": "gdynia",
    "city": "Kościerzyna",
    "address": "Kaliska Kościerskie 45a, 83-400 Kościerzyna, Polska",
    "latitude": 54.167672,
    "longitude": 18.068089,
    "sortScore": 5.35,
    "pinVerified": "TAK (Skorygowana)",
    "geoportalLink": "https://mapy.geoportal.gov.pl/imap/Imgp_2.html?locale=pl&gui=new&sessionID=&XY=439178.5,700776.84",
    "source": "curated",
    "osmMatch": null
  },
  {
    "originalId": 0,
    "name": "Łowisko Piaseczno",
    "region": "gdynia",
    "city": "Orle",
    "address": "Orle 35, 83-420, Polska",
    "latitude": 54.0420186,
    "longitude": 18.2081233,
    "sortScore": 5.25,
    "pinVerified": "TAK (Skorygowana)",
    "geoportalLink": "https://mapy.geoportal.gov.pl/imap/Imgp_2.html?locale=pl&gui=new&sessionID=&XY=448161.2,686689.49",
    "source": "curated",
    "osmMatch": null
  },
  {
    "originalId": 0,
    "name": "Łowisko BIG GAME",
    "region": "gdynia",
    "city": "Glewnik",
    "address": "Glewnik 1, 77-235, Polska",
    "latitude": 54.224432199999995,
    "longitude": 17.0645624,
    "sortScore": 5.16,
    "pinVerified": "TAK (Skorygowana)",
    "geoportalLink": "https://mapy.geoportal.gov.pl/imap/Imgp_2.html?locale=pl&gui=new&sessionID=&XY=373861.78,708418.04",
    "source": "curated",
    "osmMatch": null
  },
  {
    "originalId": 0,
    "name": "GOPLANICA",
    "region": "gdynia",
    "city": "Elbląg",
    "address": "Unnamed Road, 82-300 Elbląg, Polska",
    "latitude": 54.208653,
    "longitude": 19.469255,
    "sortScore": 5.11,
    "pinVerified": "TAK (Skorygowana)",
    "geoportalLink": "https://mapy.geoportal.gov.pl/imap/Imgp_2.html?locale=pl&gui=new&sessionID=&XY=530596.13,705035.79",
    "source": "curated",
    "osmMatch": null
  },
  {
    "originalId": 0,
    "name": "Łowisko ORLE STAWY",
    "region": "gdynia",
    "city": "Lędziechowo",
    "address": "84-351 Lędziechowo, Polska",
    "latitude": 54.6442987,
    "longitude": 17.6870419,
    "sortScore": 5.08,
    "pinVerified": "TAK (Skorygowana)",
    "geoportalLink": "https://mapy.geoportal.gov.pl/imap/Imgp_2.html?locale=pl&gui=new&sessionID=&XY=415298.51,754184.78",
    "source": "curated",
    "osmMatch": null
  },
  {
    "originalId": 0,
    "name": "Zbiornik retencyjny Klukowo",
    "region": "gdynia",
    "city": "Gdańsk",
    "address": "80-001 Gdańsk, Polska",
    "latitude": 54.39984,
    "longitude": 18.464966,
    "sortScore": 4.99,
    "pinVerified": "TAK (Skorygowana)",
    "geoportalLink": "https://mapy.geoportal.gov.pl/imap/Imgp_2.html?locale=pl&gui=new&sessionID=&XY=465276.29,726332.24",
    "source": "curated",
    "osmMatch": null
  },
  {
    "originalId": 0,
    "name": "Łowisko Tuszynek",
    "region": "gdynia",
    "city": "Osiek",
    "address": "83-221 Osiek, Polska",
    "latitude": 53.7437192,
    "longitude": 18.499333999999998,
    "sortScore": 4.92,
    "pinVerified": "TAK (Skorygowana)",
    "geoportalLink": "https://mapy.geoportal.gov.pl/imap/Imgp_2.html?locale=pl&gui=new&sessionID=&XY=466990.36,653337.43",
    "source": "curated",
    "osmMatch": null
  },
  {
    "originalId": 0,
    "name": "Łowisko Wygonin",
    "region": "gdynia",
    "city": "Wygonin",
    "address": "Wygonin 12c, 83-430, Polska",
    "latitude": 53.9559839,
    "longitude": 18.1311094,
    "sortScore": 4.83,
    "pinVerified": "TAK (Skorygowana)",
    "geoportalLink": "https://mapy.geoportal.gov.pl/imap/Imgp_2.html?locale=pl&gui=new&sessionID=&XY=443002.33,677179.58",
    "source": "curated",
    "osmMatch": null
  },
  {
    "originalId": 0,
    "name": "Staw",
    "region": "gdynia",
    "city": "Zbychowo",
    "address": "84-206 Zbychowo, Polska",
    "latitude": 54.5555932,
    "longitude": 18.3220477,
    "sortScore": 4.6,
    "pinVerified": "TAK (Skorygowana)",
    "geoportalLink": "https://mapy.geoportal.gov.pl/imap/Imgp_2.html?locale=pl&gui=new&sessionID=&XY=456167.87,743737.04",
    "source": "curated",
    "osmMatch": null
  },
  {
    "originalId": 0,
    "name": "Łowisko wędkarskie Rybaki",
    "region": "gdynia",
    "city": "Kościerzyna",
    "address": "Wdzydzka, 83-400 Kościerzyna, Polska",
    "latitude": 54.1026246,
    "longitude": 17.9241656,
    "sortScore": 4.48,
    "pinVerified": "TAK (Skorygowana)",
    "geoportalLink": "https://mapy.geoportal.gov.pl/imap/Imgp_2.html?locale=pl&gui=new&sessionID=&XY=429675.51,693675.48",
    "source": "curated",
    "osmMatch": null
  },
  {
    "originalId": 0,
    "name": "Jezioro kczewskie łowisko",
    "region": "gdynia",
    "city": "Kczewo",
    "address": "Dolna 135, 83-304 Kczewo, Polska",
    "latitude": 54.385477699999996,
    "longitude": 18.3263996,
    "sortScore": 4.36,
    "pinVerified": "TAK (Skorygowana)",
    "geoportalLink": "https://mapy.geoportal.gov.pl/imap/Imgp_2.html?locale=pl&gui=new&sessionID=&XY=456268.18,724811.82",
    "source": "curated",
    "osmMatch": null
  },
  {
    "originalId": 0,
    "name": "Karpiowe Łowisko 333 Popowo ( Lubuskie ) No Kill",
    "region": "gorzów wielkopolski",
    "city": "Popowo",
    "address": "Popowo 15, 66-350, Polska",
    "latitude": 52.535346,
    "longitude": 15.514724399999999,
    "sortScore": 5.32,
    "pinVerified": "TAK (Skorygowana)",
    "geoportalLink": "https://mapy.geoportal.gov.pl/imap/Imgp_2.html?locale=pl&gui=new&sessionID=&XY=263707.29,524544.19",
    "source": "curated",
    "osmMatch": null
  },
  {
    "originalId": 0,
    "name": "Stawy u Sikory. Agroturystyka. Łowisko.",
    "region": "gorzów wielkopolski",
    "city": "Nowa Wieś",
    "address": "Nowa Wieś 95, 66-350, Polska",
    "latitude": 52.468202000000005,
    "longitude": 15.342162,
    "sortScore": 5.21,
    "pinVerified": "TAK (Skorygowana)",
    "geoportalLink": "https://mapy.geoportal.gov.pl/imap/Imgp_2.html?locale=pl&gui=new&sessionID=&XY=251633.54,517661.2",
    "source": "verified",
    "osmMatch": {
      "osmName": "\"Stawy u Sikory\"  Gospodarstwo Rybackie Krzysztof Sikora",
      "osmId": 6389666602,
      "distanceKm": 0.017
    }
  },
  {
    "originalId": 0,
    "name": "Jezioro Chwalęcińskie - \"Staw na Błotnej",
    "region": "gorzów wielkopolski",
    "city": "Gorzów Wielkopolski",
    "address": "66-400 Gorzów Wielkopolski, Polska",
    "latitude": 52.7534746,
    "longitude": 15.222300599999999,
    "sortScore": 4.8,
    "pinVerified": "TAK (Skorygowana)",
    "geoportalLink": "https://mapy.geoportal.gov.pl/imap/Imgp_2.html?locale=pl&gui=new&sessionID=&XY=245161.24,549784.9",
    "source": "curated",
    "osmMatch": null
  },
  {
    "originalId": 0,
    "name": "Stawy hodowlane",
    "region": "gorzów wielkopolski",
    "city": "Gorzów Wielkopolski",
    "address": "R4FQ+3M, Gorzów Wielkopolski, Polska",
    "latitude": 52.822871,
    "longitude": 15.1389727,
    "sortScore": 4.33,
    "pinVerified": "TAK (Skorygowana)",
    "geoportalLink": "https://mapy.geoportal.gov.pl/imap/Imgp_2.html?locale=pl&gui=new&sessionID=&XY=239956.83,557795.99",
    "source": "curated",
    "osmMatch": null
  },
  {
    "originalId": 0,
    "name": "Łowisko Maślanka Psary",
    "region": "kalisz",
    "city": "Psary",
    "address": "63-405 Psary, Polska",
    "latitude": 51.6637607,
    "longitude": 17.9952351,
    "sortScore": 5.47,
    "pinVerified": "TAK (Skorygowana)",
    "geoportalLink": "https://mapy.geoportal.gov.pl/imap/Imgp_2.html?locale=pl&gui=new&sessionID=&XY=430528.43,422401.84",
    "source": "verified",
    "osmMatch": {
      "osmName": "Łowisko Maślanka Psary",
      "osmId": 10945983237,
      "distanceKm": 0.181
    }
  },
  {
    "originalId": 0,
    "name": "Łowisko wędkarskie Osada Kaczka | Uniejów | Łódź | Konin | Staw komercyjny",
    "region": "kalisz",
    "city": "Kaczka",
    "address": "Kaczka 1B, 62-630, Polska",
    "latitude": 51.9343064,
    "longitude": 18.7297592,
    "sortScore": 5.02,
    "pinVerified": "TAK (Skorygowana)",
    "geoportalLink": "https://mapy.geoportal.gov.pl/imap/Imgp_2.html?locale=pl&gui=new&sessionID=&XY=481426.27,452039.3",
    "source": "curated",
    "osmMatch": null
  },
  {
    "originalId": 0,
    "name": "Łowisko u Sławka",
    "region": "kalisz",
    "city": "Kuszyn",
    "address": "Jaszczury 4a, 62-831 Kuszyn, Polska",
    "latitude": 51.8800252,
    "longitude": 18.2346374,
    "sortScore": 5.0,
    "pinVerified": "TAK (Skorygowana)",
    "geoportalLink": "https://mapy.geoportal.gov.pl/imap/Imgp_2.html?locale=pl&gui=new&sessionID=&XY=447333.28,446246.16",
    "source": "curated",
    "osmMatch": null
  },
  {
    "originalId": 0,
    "name": "Łowisko Lipka-Cegielnia",
    "region": "kalisz",
    "city": "Lipka",
    "address": "Lipka 30, 62-865, Polska",
    "latitude": 51.709112999999995,
    "longitude": 18.389931999999998,
    "sortScore": 4.61,
    "pinVerified": "TAK (Skorygowana)",
    "geoportalLink": "https://mapy.geoportal.gov.pl/imap/Imgp_2.html?locale=pl&gui=new&sessionID=&XY=457860.42,427142.53",
    "source": "curated",
    "osmMatch": null
  },
  {
    "originalId": 0,
    "name": "Staw starej Cegielni",
    "region": "kalisz",
    "city": "Kalisz",
    "address": "62-800 Kalisz, Polska",
    "latitude": 51.7576427,
    "longitude": 18.1192606,
    "sortScore": 4.54,
    "pinVerified": "TAK (Skorygowana)",
    "geoportalLink": "https://mapy.geoportal.gov.pl/imap/Imgp_2.html?locale=pl&gui=new&sessionID=&XY=439229.59,432729.04",
    "source": "curated",
    "osmMatch": null
  },
  {
    "originalId": 0,
    "name": "Łowisko Lipka - Złoty Karaś",
    "region": "kalisz",
    "city": "Lipka",
    "address": "Lipka 32C, 62-865, Polska",
    "latitude": 51.706677899999995,
    "longitude": 18.388443,
    "sortScore": 4.52,
    "pinVerified": "TAK (Skorygowana)",
    "geoportalLink": "https://mapy.geoportal.gov.pl/imap/Imgp_2.html?locale=pl&gui=new&sessionID=&XY=457755.3,426872.65",
    "source": "curated",
    "osmMatch": null
  },
  {
    "originalId": 0,
    "name": "Łowisko Specjalne nr 504 \"Murcki Fala",
    "region": "katowice",
    "city": "Katowice",
    "address": "Wesoła Fala, 41-408 Katowice, Polska",
    "latitude": 50.1935341,
    "longitude": 19.085695899999997,
    "sortScore": 4.71,
    "pinVerified": "TAK (Skorygowana)",
    "geoportalLink": "https://mapy.geoportal.gov.pl/imap/Imgp_2.html?locale=pl&gui=new&sessionID=&XY=506115.05,258483.87",
    "source": "verified",
    "osmMatch": {
      "osmName": "Łowisko specjalne nr 504",
      "osmId": 7093464928,
      "distanceKm": 0.01
    }
  },
  {
    "originalId": 0,
    "name": "Oleśnikowa Dolina Noclegi łowisko wędkarskie",
    "region": "kielce",
    "city": "Oleśnik",
    "address": "Oleśnik 1, 05-620, Polska",
    "latitude": 51.763245,
    "longitude": 20.709808,
    "sortScore": 5.45,
    "pinVerified": "TAK (Skorygowana)",
    "geoportalLink": "https://mapy.geoportal.gov.pl/imap/Imgp_2.html?locale=pl&gui=new&sessionID=&XY=617957.97,434367.7",
    "source": "verified",
    "osmMatch": {
      "osmName": "Oleśnikowa Dolina",
      "osmId": 9791807177,
      "distanceKm": 0.013
    }
  },
  {
    "originalId": 0,
    "name": "Agroturystyka, wędkowanie GOSPODARSTWO ZŁOTE STAWY",
    "region": "kielce",
    "city": "Śladków Mały",
    "address": "Śladków Mały 98, 26-020, Polska",
    "latitude": 50.580220499999996,
    "longitude": 20.7506239,
    "sortScore": 5.43,
    "pinVerified": "TAK (Skorygowana)",
    "geoportalLink": "https://mapy.geoportal.gov.pl/imap/Imgp_2.html?locale=pl&gui=new&sessionID=&XY=623904.77,302926.4",
    "source": "curated",
    "osmMatch": null
  },
  {
    "originalId": 0,
    "name": "Łowisko 3 Stawy - Smażalnia ryb | Domki na wynajem | Organizacja imprez",
    "region": "kielce",
    "city": "Goryń",
    "address": "Goryń 21C, 26-631, Polska",
    "latitude": 51.539781,
    "longitude": 21.2619361,
    "sortScore": 5.39,
    "pinVerified": "TAK (Skorygowana)",
    "geoportalLink": "https://mapy.geoportal.gov.pl/imap/Imgp_2.html?locale=pl&gui=new&sessionID=&XY=656814.2,410564.08",
    "source": "curated",
    "osmMatch": null
  },
  {
    "originalId": 0,
    "name": "Zbiornik Bilówka",
    "region": "kielce",
    "city": "Wólka Bodzechowska",
    "address": "Wólka Bodzechowska 121, 27-420, Polska",
    "latitude": 50.9235766,
    "longitude": 21.456974799999998,
    "sortScore": 5.3,
    "pinVerified": "TAK (Skorygowana)",
    "geoportalLink": "https://mapy.geoportal.gov.pl/imap/Imgp_2.html?locale=pl&gui=new&sessionID=&XY=672625.37,342507.42",
    "source": "curated",
    "osmMatch": null
  },
  {
    "originalId": 0,
    "name": "Łowisko Wielgie",
    "region": "kielce",
    "city": "Wielgie",
    "address": "Wielgie 79, 27-310, Polska",
    "latitude": 51.239143299999995,
    "longitude": 21.485316599999997,
    "sortScore": 5.19,
    "pinVerified": "TAK (Skorygowana)",
    "geoportalLink": "https://mapy.geoportal.gov.pl/imap/Imgp_2.html?locale=pl&gui=new&sessionID=&XY=673431.89,377649.36",
    "source": "curated",
    "osmMatch": null
  },
  {
    "originalId": 0,
    "name": "Moje Łowisko",
    "region": "kielce",
    "city": "Falęcin Stary",
    "address": "Falęcin Stary 13, 28-130, Polska",
    "latitude": 50.477444,
    "longitude": 20.941368,
    "sortScore": 5.16,
    "pinVerified": "TAK (Skorygowana)",
    "geoportalLink": "https://mapy.geoportal.gov.pl/imap/Imgp_2.html?locale=pl&gui=new&sessionID=&XY=637703.13,291838.98",
    "source": "curated",
    "osmMatch": null
  },
  {
    "originalId": 0,
    "name": "Łowisko wędkarskie Żwirownia Złotowo „ No kill”",
    "region": "kielce",
    "city": "Złotowo",
    "address": "40, 88-190 Złotowo, Polska",
    "latitude": 52.86528690000001,
    "longitude": 18.054983399999998,
    "sortScore": 5.14,
    "pinVerified": "TAK (Skorygowana)",
    "geoportalLink": "https://mapy.geoportal.gov.pl/imap/Imgp_2.html?locale=pl&gui=new&sessionID=&XY=436402.24,555945.23",
    "source": "verified",
    "osmMatch": {
      "osmName": "Łowisko Żwirownia",
      "osmId": 10801581587,
      "distanceKm": 0.029
    }
  },
  {
    "originalId": 0,
    "name": "Łowisko",
    "region": "kielce",
    "city": "Jabłonica",
    "address": "Północna 4, 26-432 Jabłonica, Polska",
    "latitude": 51.357477599999996,
    "longitude": 20.796873599999998,
    "sortScore": 5.1,
    "pinVerified": "TAK (Skorygowana)",
    "geoportalLink": "https://mapy.geoportal.gov.pl/imap/Imgp_2.html?locale=pl&gui=new&sessionID=&XY=625072.52,389403.46",
    "source": "curated",
    "osmMatch": null
  },
  {
    "originalId": 0,
    "name": "Sr Baits Carp Lake",
    "region": "kielce",
    "city": "Opoczno",
    "address": "26-300 Parczów, Polska",
    "latitude": 51.330253799999994,
    "longitude": 20.328678699999998,
    "sortScore": 5.0,
    "pinVerified": "TAK (Skorygowana)",
    "geoportalLink": "https://mapy.geoportal.gov.pl/imap/Imgp_2.html?locale=pl&gui=new&sessionID=&XY=592539.84,385682.57",
    "source": "curated",
    "osmMatch": null
  },
  {
    "originalId": 0,
    "name": "Łowisko Młyn",
    "region": "kielce",
    "city": "Zakrzów",
    "address": "Zakrzów 64, 28-360, Polska",
    "latitude": 50.7793099,
    "longitude": 20.1512399,
    "sortScore": 4.93,
    "pinVerified": "TAK (Skorygowana)",
    "geoportalLink": "https://mapy.geoportal.gov.pl/imap/Imgp_2.html?locale=pl&gui=new&sessionID=&XY=581139.21,324227.08",
    "source": "curated",
    "osmMatch": null
  },
  {
    "originalId": 0,
    "name": "Łowisko Wykrota",
    "region": "kielce",
    "city": "Ostrowiec Świętokrzyski",
    "address": "Henryka Sienkiewicza 134, 27-400 Ostrowiec Świętokrzyski, Polska",
    "latitude": 50.9496926,
    "longitude": 21.3466756,
    "sortScore": 4.71,
    "pinVerified": "TAK (Skorygowana)",
    "geoportalLink": "https://mapy.geoportal.gov.pl/imap/Imgp_2.html?locale=pl&gui=new&sessionID=&XY=664784.36,345157.91",
    "source": "curated",
    "osmMatch": null
  },
  {
    "originalId": 0,
    "name": "Kamienny Staw Arcadis",
    "region": "kielce",
    "city": "Rogówek",
    "address": "Rogówek 23A, 26-225, Polska",
    "latitude": 51.271321199999996,
    "longitude": 20.462685399999998,
    "sortScore": 4.69,
    "pinVerified": "TAK (Skorygowana)",
    "geoportalLink": "https://mapy.geoportal.gov.pl/imap/Imgp_2.html?locale=pl&gui=new&sessionID=&XY=602003.27,379308.67",
    "source": "curated",
    "osmMatch": null
  },
  {
    "originalId": 0,
    "name": "Staw",
    "region": "kielce",
    "city": "Komórki",
    "address": "Komórki 2B, 26-015, Polska",
    "latitude": 50.73815,
    "longitude": 20.7446999,
    "sortScore": 4.55,
    "pinVerified": "TAK (Skorygowana)",
    "geoportalLink": "https://mapy.geoportal.gov.pl/imap/Imgp_2.html?locale=pl&gui=new&sessionID=&XY=623071.97,320470.98",
    "source": "curated",
    "osmMatch": null
  },
  {
    "originalId": 0,
    "name": "Łowisko karpiowe \" U Andrzeja",
    "region": "kielce",
    "city": "Krogulec",
    "address": "29-120 Krogulec, Polska",
    "latitude": 50.9625037,
    "longitude": 19.9988593,
    "sortScore": 4.51,
    "pinVerified": "TAK (Skorygowana)",
    "geoportalLink": "https://mapy.geoportal.gov.pl/imap/Imgp_2.html?locale=pl&gui=new&sessionID=&XY=570124.25,344435.6",
    "source": "curated",
    "osmMatch": null
  },
  {
    "originalId": 0,
    "name": "Leśny staw - Łowisko PFWK",
    "region": "kielce",
    "city": "Ciągowice",
    "address": "Ciągowice, Polska",
    "latitude": 50.4576396,
    "longitude": 19.3694849,
    "sortScore": 4.48,
    "pinVerified": "TAK (Skorygowana)",
    "geoportalLink": "https://mapy.geoportal.gov.pl/imap/Imgp_2.html?locale=pl&gui=new&sessionID=&XY=526219.79,287902.85",
    "source": "curated",
    "osmMatch": null
  },
  {
    "originalId": 0,
    "name": "Staw Wędkarski \"Koło Wędkarskie SUM",
    "region": "kielce",
    "city": "Promnik",
    "address": "Unnamed Road, 26-067 Promnik, Polska",
    "latitude": 50.921524299999994,
    "longitude": 20.4299847,
    "sortScore": 4.46,
    "pinVerified": "TAK (Skorygowana)",
    "geoportalLink": "https://mapy.geoportal.gov.pl/imap/Imgp_2.html?locale=pl&gui=new&sessionID=&XY=600478.33,340378.59",
    "source": "curated",
    "osmMatch": null
  },
  {
    "originalId": 0,
    "name": "Łowisko Wędkarskie",
    "region": "kielce",
    "city": "Pińczów",
    "address": "28-400 Pińczów, Polska",
    "latitude": 50.4549726,
    "longitude": 20.5859502,
    "sortScore": 4.33,
    "pinVerified": "TAK (Skorygowana)",
    "geoportalLink": "https://mapy.geoportal.gov.pl/imap/Imgp_2.html?locale=pl&gui=new&sessionID=&XY=612547.68,288742.48",
    "source": "curated",
    "osmMatch": null
  },
  {
    "originalId": 0,
    "name": "Łowisko \"Okoń\" Pilczyca",
    "region": "kielce",
    "city": "Pilczyca",
    "address": "DW742 59, 29-120 Pilczyca, Polska",
    "latitude": 50.9375153,
    "longitude": 19.9087313,
    "sortScore": 4.33,
    "pinVerified": "TAK (Skorygowana)",
    "geoportalLink": "https://mapy.geoportal.gov.pl/imap/Imgp_2.html?locale=pl&gui=new&sessionID=&XY=563831.21,341575.9",
    "source": "curated",
    "osmMatch": null
  },
  {
    "originalId": 0,
    "name": "Łowisko koła PZW Mirzec",
    "region": "kielce",
    "city": "Mirzec",
    "address": "27-220 Mirzec, Polska",
    "latitude": 51.138497699999995,
    "longitude": 21.0564111,
    "sortScore": 4.33,
    "pinVerified": "TAK (Skorygowana)",
    "geoportalLink": "https://mapy.geoportal.gov.pl/imap/Imgp_2.html?locale=pl&gui=new&sessionID=&XY=643817.82,365536.33",
    "source": "curated",
    "osmMatch": null
  },
  {
    "originalId": 0,
    "name": "Łowisko Nad Stawem",
    "region": "kielce",
    "city": "Rosiejów",
    "address": "Rosiejów 106, 28-530, Polska",
    "latitude": 50.3254119,
    "longitude": 20.323767300000004,
    "sortScore": 4.1,
    "pinVerified": "TAK (Skorygowana)",
    "geoportalLink": "https://mapy.geoportal.gov.pl/imap/Imgp_2.html?locale=pl&gui=new&sessionID=&XY=594198.82,273977.02",
    "source": "curated",
    "osmMatch": null
  },
  {
    "originalId": 0,
    "name": "Łowisko Magdalenka",
    "region": "koszalin",
    "city": "Głodowa",
    "address": "Głodowa 28a, 76-020, Polska",
    "latitude": 53.977928999999996,
    "longitude": 16.5456717,
    "sortScore": 5.02,
    "pinVerified": "TAK (Skorygowana)",
    "geoportalLink": "https://mapy.geoportal.gov.pl/imap/Imgp_2.html?locale=pl&gui=new&sessionID=&XY=339098.25,682058.98",
    "source": "curated",
    "osmMatch": null
  },
  {
    "originalId": 0,
    "name": "Dobre Miejsce- agroturystyka nad stawem, łowisko komercyjne",
    "region": "koszalin",
    "city": "Sianów",
    "address": "Ogrodowa 30, 76-004 Sianów, Polska",
    "latitude": 54.2326427,
    "longitude": 16.263768799999998,
    "sortScore": 4.9,
    "pinVerified": "TAK (Skorygowana)",
    "geoportalLink": "https://mapy.geoportal.gov.pl/imap/Imgp_2.html?locale=pl&gui=new&sessionID=&XY=321717.77,711057.82",
    "source": "curated",
    "osmMatch": null
  },
  {
    "originalId": 0,
    "name": "Łowisko Sowinko",
    "region": "koszalin",
    "city": "Sowinko",
    "address": "Sowinko 29, 76-010, Polska",
    "latitude": 54.1629084,
    "longitude": 16.4907544,
    "sortScore": 4.43,
    "pinVerified": "TAK (Skorygowana)",
    "geoportalLink": "https://mapy.geoportal.gov.pl/imap/Imgp_2.html?locale=pl&gui=new&sessionID=&XY=336228.55,702753.99",
    "source": "curated",
    "osmMatch": null
  },
  {
    "originalId": 0,
    "name": "Łowisko licencyjne MZW Brzegi",
    "region": "kraków",
    "city": "Brzegi",
    "address": "32-002 Brzegi, Polska",
    "latitude": 50.033110099999995,
    "longitude": 20.0848804,
    "sortScore": 5.11,
    "pinVerified": "TAK (Skorygowana)",
    "geoportalLink": "https://mapy.geoportal.gov.pl/imap/Imgp_2.html?locale=pl&gui=new&sessionID=&XY=577672.67,241212.31",
    "source": "verified",
    "osmMatch": {
      "osmName": "",
      "osmId": 12234579803,
      "distanceKm": 0.683
    }
  },
  {
    "originalId": 0,
    "name": "Łowisko PZW Cholerzyn",
    "region": "kraków",
    "city": "Liszki",
    "address": "32-060 Liszki, Polska",
    "latitude": 50.0531078,
    "longitude": 19.749671199999998,
    "sortScore": 4.98,
    "pinVerified": "TAK (Skorygowana)",
    "geoportalLink": "https://mapy.geoportal.gov.pl/imap/Imgp_2.html?locale=pl&gui=new&sessionID=&XY=553651.16,243140.56",
    "source": "curated",
    "osmMatch": null
  },
  {
    "originalId": 0,
    "name": "Łowisko PZW Koła Zwierzyniec \"Pobiednik",
    "region": "kraków",
    "city": "Pobiednik Mały",
    "address": "32-126 Pobiednik Mały, Polska",
    "latitude": 50.0719511,
    "longitude": 20.215922799999998,
    "sortScore": 4.96,
    "pinVerified": "TAK (Skorygowana)",
    "geoportalLink": "https://mapy.geoportal.gov.pl/imap/Imgp_2.html?locale=pl&gui=new&sessionID=&XY=586984.25,245673.79",
    "source": "curated",
    "osmMatch": null
  },
  {
    "originalId": 0,
    "name": "Łowisko wędkarskie OSP Wołowice",
    "region": "kraków",
    "city": "Wołowice",
    "address": "32-070 Wołowice, Polska",
    "latitude": 49.9904613,
    "longitude": 19.747882999999998,
    "sortScore": 4.95,
    "pinVerified": "TAK (Skorygowana)",
    "geoportalLink": "https://mapy.geoportal.gov.pl/imap/Imgp_2.html?locale=pl&gui=new&sessionID=&XY=553592.84,236176.12",
    "source": "curated",
    "osmMatch": null
  },
  {
    "originalId": 0,
    "name": "Łowisko Brzegi IIIc (koło PZW Zwierzyniec)",
    "region": "kraków",
    "city": "Wieliczka",
    "address": "32-002 Wieliczka, Polska",
    "latitude": 50.025158399999995,
    "longitude": 20.078161599999998,
    "sortScore": 4.92,
    "pinVerified": "TAK (Skorygowana)",
    "geoportalLink": "https://mapy.geoportal.gov.pl/imap/Imgp_2.html?locale=pl&gui=new&sessionID=&XY=577204.39,240321.53",
    "source": "verified",
    "osmMatch": {
      "osmName": "",
      "osmId": 12258114854,
      "distanceKm": 0.005
    }
  },
  {
    "originalId": 0,
    "name": "Łowisko Jesiotr",
    "region": "kraków",
    "city": "Zakrzowiec",
    "address": "32-003 Zakrzowiec, Polska",
    "latitude": 50.0043375,
    "longitude": 20.1604347,
    "sortScore": 4.9,
    "pinVerified": "TAK (Skorygowana)",
    "geoportalLink": "https://mapy.geoportal.gov.pl/imap/Imgp_2.html?locale=pl&gui=new&sessionID=&XY=583131.54,238095.54",
    "source": "curated",
    "osmMatch": null
  },
  {
    "originalId": 0,
    "name": "PZW Zbiornik 10 / Spec.karpiowe N.H.",
    "region": "kraków",
    "city": "Kraków",
    "address": "Zaporębie 31, 31-985 Kraków, Polska",
    "latitude": 50.0505405,
    "longitude": 20.1394576,
    "sortScore": 4.84,
    "pinVerified": "TAK (Skorygowana)",
    "geoportalLink": "https://mapy.geoportal.gov.pl/imap/Imgp_2.html?locale=pl&gui=new&sessionID=&XY=581550.53,243207.8",
    "source": "curated",
    "osmMatch": null
  },
  {
    "originalId": 0,
    "name": "Łowisko Komercyjne \"RYBKA",
    "region": "kraków",
    "city": "Zawada",
    "address": "Zawada 236, 32-445 Krzyszkowice, Polska",
    "latitude": 49.87603,
    "longitude": 19.9369798,
    "sortScore": 4.69,
    "pinVerified": "TAK (Skorygowana)",
    "geoportalLink": "https://mapy.geoportal.gov.pl/imap/Imgp_2.html?locale=pl&gui=new&sessionID=&XY=567302.41,223610.0",
    "source": "curated",
    "osmMatch": null
  },
  {
    "originalId": 0,
    "name": "Stawy Skotnickie",
    "region": "kraków",
    "city": "Kraków",
    "address": "Skotniki Szkoła, 30-394, 30-394 Kraków, Polska",
    "latitude": 50.017007299999996,
    "longitude": 19.8754997,
    "sortScore": 4.51,
    "pinVerified": "TAK (Skorygowana)",
    "geoportalLink": "https://mapy.geoportal.gov.pl/imap/Imgp_2.html?locale=pl&gui=new&sessionID=&XY=562703.12,239225.92",
    "source": "curated",
    "osmMatch": null
  },
  {
    "originalId": 0,
    "name": "Łowisko licencyjne koła Ciepłownik",
    "region": "kraków",
    "city": "Kraków",
    "address": "31-985 Kraków, Polska",
    "latitude": 50.048328299999994,
    "longitude": 20.151140899999998,
    "sortScore": 4.48,
    "pinVerified": "TAK (Skorygowana)",
    "geoportalLink": "https://mapy.geoportal.gov.pl/imap/Imgp_2.html?locale=pl&gui=new&sessionID=&XY=582390.47,242974.73",
    "source": "curated",
    "osmMatch": null
  },
  {
    "originalId": 0,
    "name": "Łowisko Grzymalin",
    "region": "legnica",
    "city": "Legnica",
    "address": "59-222 Grzymalin, Polska",
    "latitude": 51.2867652,
    "longitude": 16.0775865,
    "sortScore": 5.35,
    "pinVerified": "TAK (Skorygowana)",
    "geoportalLink": "https://mapy.geoportal.gov.pl/imap/Imgp_2.html?locale=pl&gui=new&sessionID=&XY=296282.37,384065.31",
    "source": "curated",
    "osmMatch": null
  },
  {
    "originalId": 0,
    "name": "Łowisko Siedlnica",
    "region": "legnica",
    "city": "Siedlnica",
    "address": "Siedlnica 166, 67-400, Polska",
    "latitude": 51.783186799999996,
    "longitude": 16.3350771,
    "sortScore": 5.35,
    "pinVerified": "TAK (Skorygowana)",
    "geoportalLink": "https://mapy.geoportal.gov.pl/imap/Imgp_2.html?locale=pl&gui=new&sessionID=&XY=316239.72,438560.97",
    "source": "curated",
    "osmMatch": null
  },
  {
    "originalId": 0,
    "name": "Łowisko Rekreacyjne Przemków",
    "region": "legnica",
    "city": "Łężce",
    "address": "59-170 Łężce, Polska",
    "latitude": 51.532135,
    "longitude": 15.807991900000001,
    "sortScore": 5.35,
    "pinVerified": "TAK (Skorygowana)",
    "geoportalLink": "https://mapy.geoportal.gov.pl/imap/Imgp_2.html?locale=pl&gui=new&sessionID=&XY=278682.04,412118.73",
    "source": "curated",
    "osmMatch": null
  },
  {
    "originalId": 0,
    "name": "Sobolewo\" - łowisko wędkarskie",
    "region": "legnica",
    "city": "Jelenia Góra",
    "address": "50,9124740, 15,6898277, 58-500 Jelenia Góra, Polska",
    "latitude": 50.912351099999995,
    "longitude": 15.689649500000002,
    "sortScore": 5.24,
    "pinVerified": "TAK (Skorygowana)",
    "geoportalLink": "https://mapy.geoportal.gov.pl/imap/Imgp_2.html?locale=pl&gui=new&sessionID=&XY=267372.9,343604.08",
    "source": "curated",
    "osmMatch": null
  },
  {
    "originalId": 0,
    "name": "Łowisko Pogalewo",
    "region": "legnica",
    "city": "Pogalewo Wielkie",
    "address": "56-120 Pogalewo Wielkie, Polska",
    "latitude": 51.2527475,
    "longitude": 16.631393499999998,
    "sortScore": 5.14,
    "pinVerified": "TAK (Skorygowana)",
    "geoportalLink": "https://mapy.geoportal.gov.pl/imap/Imgp_2.html?locale=pl&gui=new&sessionID=&XY=334760.2,378892.4",
    "source": "verified",
    "osmMatch": {
      "osmName": "",
      "osmId": 12650777734,
      "distanceKm": 0.007
    }
  },
  {
    "originalId": 0,
    "name": "Łowisko \"Dziki Staw",
    "region": "legnica",
    "city": "Lipa",
    "address": "59-420 Lipa, Polska",
    "latitude": 50.983193799999995,
    "longitude": 16.023846799999998,
    "sortScore": 5.01,
    "pinVerified": "TAK (Skorygowana)",
    "geoportalLink": "https://mapy.geoportal.gov.pl/imap/Imgp_2.html?locale=pl&gui=new&sessionID=&XY=291171.16,350476.6",
    "source": "curated",
    "osmMatch": null
  },
  {
    "originalId": 0,
    "name": "Łowisko Rogów Legnicki",
    "region": "legnica",
    "city": "Rogów Legnicki",
    "address": "59-230 Rogów Legnicki, Polska",
    "latitude": 51.258146599999996,
    "longitude": 16.4367291,
    "sortScore": 4.94,
    "pinVerified": "TAK (Skorygowana)",
    "geoportalLink": "https://mapy.geoportal.gov.pl/imap/Imgp_2.html?locale=pl&gui=new&sessionID=&XY=321202.76,379948.58",
    "source": "curated",
    "osmMatch": null
  },
  {
    "originalId": 0,
    "name": "Łowisko Gruba Ryba",
    "region": "legnica",
    "city": "Krzywa",
    "address": "1, 59-225 Krzywa, Polska",
    "latitude": 51.294965399999995,
    "longitude": 15.772617,
    "sortScore": 4.9,
    "pinVerified": "TAK (Skorygowana)",
    "geoportalLink": "https://mapy.geoportal.gov.pl/imap/Imgp_2.html?locale=pl&gui=new&sessionID=&XY=275068.09,385867.56",
    "source": "curated",
    "osmMatch": null
  },
  {
    "originalId": 0,
    "name": "Castle Lakes - apartamenty i łowisko",
    "region": "legnica",
    "city": "Grzymalin",
    "address": "1, 59-222 Grzymalin, Polska",
    "latitude": 51.26992,
    "longitude": 16.132216,
    "sortScore": 4.88,
    "pinVerified": "TAK (Skorygowana)",
    "geoportalLink": "https://mapy.geoportal.gov.pl/imap/Imgp_2.html?locale=pl&gui=new&sessionID=&XY=300016.65,382042.8",
    "source": "curated",
    "osmMatch": null
  },
  {
    "originalId": 0,
    "name": "Łowisko Bieniowice",
    "region": "legnica",
    "city": "Bieniowice",
    "address": "Bieniowice, Polska",
    "latitude": 51.2516762,
    "longitude": 16.2422964,
    "sortScore": 4.63,
    "pinVerified": "TAK (Skorygowana)",
    "geoportalLink": "https://mapy.geoportal.gov.pl/imap/Imgp_2.html?locale=pl&gui=new&sessionID=&XY=307615.55,379720.88",
    "source": "curated",
    "osmMatch": null
  },
  {
    "originalId": 0,
    "name": "Stawy Generalskie",
    "region": "legnica",
    "city": "Nieznane",
    "address": "Unnamed Road, Polska",
    "latitude": 51.1959168,
    "longitude": 16.2342265,
    "sortScore": 4.62,
    "pinVerified": "TAK (Skorygowana)",
    "geoportalLink": "https://mapy.geoportal.gov.pl/imap/Imgp_2.html?locale=pl&gui=new&sessionID=&XY=306819.26,373544.57",
    "source": "curated",
    "osmMatch": null
  },
  {
    "originalId": 0,
    "name": "Staw Wedkarski",
    "region": "legnica",
    "city": "Legnica",
    "address": "59-220 Legnica, Polska",
    "latitude": 51.2196012,
    "longitude": 16.1503258,
    "sortScore": 4.51,
    "pinVerified": "TAK (Skorygowana)",
    "geoportalLink": "https://mapy.geoportal.gov.pl/imap/Imgp_2.html?locale=pl&gui=new&sessionID=&XY=301062.21,376400.91",
    "source": "curated",
    "osmMatch": null
  },
  {
    "originalId": 0,
    "name": "Łowisko Jeżów",
    "region": "lublin",
    "city": "Jeżów",
    "address": "24-350 Jeżów, Polska",
    "latitude": 51.1057521,
    "longitude": 22.1534515,
    "sortScore": 5.34,
    "pinVerified": "TAK (Skorygowana)",
    "geoportalLink": "https://mapy.geoportal.gov.pl/imap/Imgp_2.html?locale=pl&gui=new&sessionID=&XY=720683.33,364614.67",
    "source": "curated",
    "osmMatch": null
  },
  {
    "originalId": 0,
    "name": "Łowisko Wzory",
    "region": "lublin",
    "city": "Nasutów",
    "address": "ul. Lubelska 14, 21-025 Nasutów, Polska",
    "latitude": 51.3736842,
    "longitude": 22.5662006,
    "sortScore": 5.06,
    "pinVerified": "TAK (Skorygowana)",
    "geoportalLink": "https://mapy.geoportal.gov.pl/imap/Imgp_2.html?locale=pl&gui=new&sessionID=&XY=748113.75,395709.03",
    "source": "curated",
    "osmMatch": null
  },
  {
    "originalId": 0,
    "name": "Łowisko wędkarskie",
    "region": "lublin",
    "city": "Nieznane",
    "address": "Unnamed Road, 21-025, Polska",
    "latitude": 51.3740598,
    "longitude": 22.5644593,
    "sortScore": 4.77,
    "pinVerified": "TAK (Skorygowana)",
    "geoportalLink": "https://mapy.geoportal.gov.pl/imap/Imgp_2.html?locale=pl&gui=new&sessionID=&XY=747990.61,395744.87",
    "source": "curated",
    "osmMatch": null
  },
  {
    "originalId": 0,
    "name": "Łowisko Wędkarskie s.c. PH. Gajewski W., Rogala R.",
    "region": "lublin",
    "city": "Lublin",
    "address": "Prawiednicka 1, 20-524 Lublin, Polska",
    "latitude": 51.1410134,
    "longitude": 22.502410599999997,
    "sortScore": 4.48,
    "pinVerified": "TAK (Skorygowana)",
    "geoportalLink": "https://mapy.geoportal.gov.pl/imap/Imgp_2.html?locale=pl&gui=new&sessionID=&XY=744911.22,369638.16",
    "source": "curated",
    "osmMatch": null
  },
  {
    "originalId": 0,
    "name": "Gospodarstwo Rybackie Szwaderki",
    "region": "olsztyn",
    "city": "Swaderki",
    "address": "Swaderki 13a/1, 11-015, Polska",
    "latitude": 53.5484143,
    "longitude": 20.4179264,
    "sortScore": 5.41,
    "pinVerified": "TAK (Skorygowana)",
    "geoportalLink": "https://mapy.geoportal.gov.pl/imap/Imgp_2.html?locale=pl&gui=new&sessionID=&XY=593916.43,632434.05",
    "source": "curated",
    "osmMatch": null
  },
  {
    "originalId": 0,
    "name": "„Tęczowe Łowisko\" Poland-Mazury-Wólka Orłowska",
    "region": "olsztyn",
    "city": "Nidzica",
    "address": "Wólka Orłowska 10, 13-100 Nidzica, Polska",
    "latitude": 53.4684643,
    "longitude": 20.436759000000002,
    "sortScore": 5.23,
    "pinVerified": "TAK (Skorygowana)",
    "geoportalLink": "https://mapy.geoportal.gov.pl/imap/Imgp_2.html?locale=pl&gui=new&sessionID=&XY=595343.01,623567.99",
    "source": "curated",
    "osmMatch": null
  },
  {
    "originalId": 0,
    "name": "Łowisko Dwa Stawy",
    "region": "olsztyn",
    "city": "Ząbrowiec",
    "address": "Ząbrowiec 81, 14-407, Polska",
    "latitude": 54.062736099999995,
    "longitude": 19.944067,
    "sortScore": 5.23,
    "pinVerified": "TAK (Skorygowana)",
    "geoportalLink": "https://mapy.geoportal.gov.pl/imap/Imgp_2.html?locale=pl&gui=new&sessionID=&XY=561770.67,689115.93",
    "source": "curated",
    "osmMatch": null
  },
  {
    "originalId": 0,
    "name": "Łowisko Specjalne \"Zezuj\" Wędkarstwo Agroturystyka Szczupaki Sandacze Duże Karpie Liny Bolenie Smażalnia",
    "region": "olsztyn",
    "city": "Zezuj",
    "address": "Zezuj 3, 11-034, Polska",
    "latitude": 53.639384799999995,
    "longitude": 20.363149900000003,
    "sortScore": 5.22,
    "pinVerified": "TAK (Skorygowana)",
    "geoportalLink": "https://mapy.geoportal.gov.pl/imap/Imgp_2.html?locale=pl&gui=new&sessionID=&XY=590094.75,642480.07",
    "source": "curated",
    "osmMatch": null
  },
  {
    "originalId": 0,
    "name": "Agroturystyka \"Nad Stawami",
    "region": "olsztyn",
    "city": "Ramsowo",
    "address": "54c, 11-010 Ramsowo, Polska",
    "latitude": 53.866048,
    "longitude": 20.813592000000003,
    "sortScore": 5.1,
    "pinVerified": "TAK (Skorygowana)",
    "geoportalLink": "https://mapy.geoportal.gov.pl/imap/Imgp_2.html?locale=pl&gui=new&sessionID=&XY=619219.61,668351.07",
    "source": "curated",
    "osmMatch": null
  },
  {
    "originalId": 0,
    "name": "Łowisko Wedkarskie",
    "region": "olsztyn",
    "city": "Prusy",
    "address": "Prusy 9C, 13-220, Polska",
    "latitude": 53.3731319,
    "longitude": 19.9731432,
    "sortScore": 5.08,
    "pinVerified": "TAK (Skorygowana)",
    "geoportalLink": "https://mapy.geoportal.gov.pl/imap/Imgp_2.html?locale=pl&gui=new&sessionID=&XY=564723.25,612445.97",
    "source": "curated",
    "osmMatch": null
  },
  {
    "originalId": 0,
    "name": "Łowisko specjalne Wersminia",
    "region": "olsztyn",
    "city": "Kętrzyn",
    "address": "11-401 Martiany, Polska",
    "latitude": 54.0210839,
    "longitude": 21.5146761,
    "sortScore": 5.05,
    "pinVerified": "TAK (Skorygowana)",
    "geoportalLink": "https://mapy.geoportal.gov.pl/imap/Imgp_2.html?locale=pl&gui=new&sessionID=&XY=664686.79,686996.36",
    "source": "curated",
    "osmMatch": null
  },
  {
    "originalId": 0,
    "name": "Gospodarstwo Rybackie Olsztyn II sp. z o.o.",
    "region": "olsztyn",
    "city": "Olsztyn",
    "address": "Ruś 97, 10-687 Olsztyn, Polska",
    "latitude": 53.6905808,
    "longitude": 20.496035499999998,
    "sortScore": 4.94,
    "pinVerified": "TAK (Skorygowana)",
    "geoportalLink": "https://mapy.geoportal.gov.pl/imap/Imgp_2.html?locale=pl&gui=new&sessionID=&XY=598757.22,648350.05",
    "source": "curated",
    "osmMatch": null
  },
  {
    "originalId": 0,
    "name": "Łowisko - Próle",
    "region": "olsztyn",
    "city": "Próle",
    "address": "Próle 23, 11-010, Polska",
    "latitude": 53.90595700000001,
    "longitude": 20.753432099999998,
    "sortScore": 4.93,
    "pinVerified": "TAK (Skorygowana)",
    "geoportalLink": "https://mapy.geoportal.gov.pl/imap/Imgp_2.html?locale=pl&gui=new&sessionID=&XY=615155.52,672689.87",
    "source": "curated",
    "osmMatch": null
  },
  {
    "originalId": 0,
    "name": "Łowisko u Mateusza",
    "region": "olsztyn",
    "city": "Białuty",
    "address": "Białuty 60, 13-240, Polska",
    "latitude": 53.197499,
    "longitude": 20.370877099999998,
    "sortScore": 4.85,
    "pinVerified": "TAK (Skorygowana)",
    "geoportalLink": "https://mapy.geoportal.gov.pl/imap/Imgp_2.html?locale=pl&gui=new&sessionID=&XY=591549.76,593349.07",
    "source": "curated",
    "osmMatch": null
  },
  {
    "originalId": 0,
    "name": "Łowisko \"U Olka",
    "region": "olsztyn",
    "city": "Szyldak",
    "address": "Rychnowo 22A, 14-106 Szyldak, Polska",
    "latitude": 53.600612000000005,
    "longitude": 20.084215399999998,
    "sortScore": 4.83,
    "pinVerified": "TAK (Skorygowana)",
    "geoportalLink": "https://mapy.geoportal.gov.pl/imap/Imgp_2.html?locale=pl&gui=new&sessionID=&XY=571725.56,637850.87",
    "source": "curated",
    "osmMatch": null
  },
  {
    "originalId": 0,
    "name": "Staw Dworski / dawne jezioro Krumm",
    "region": "olsztyn",
    "city": "Olsztyn",
    "address": "10-001 Olsztyn, Polska",
    "latitude": 53.7405572,
    "longitude": 20.4350652,
    "sortScore": 4.83,
    "pinVerified": "TAK (Skorygowana)",
    "geoportalLink": "https://mapy.geoportal.gov.pl/imap/Imgp_2.html?locale=pl&gui=new&sessionID=&XY=594620.43,653825.02",
    "source": "curated",
    "osmMatch": null
  },
  {
    "originalId": 0,
    "name": "Łowisko Sterławki",
    "region": "olsztyn",
    "city": "Sterławki Wielkie",
    "address": "11-500 Sterławki Wielkie, Polska",
    "latitude": 54.0228198,
    "longitude": 21.607422500000002,
    "sortScore": 4.72,
    "pinVerified": "TAK (Skorygowana)",
    "geoportalLink": "https://mapy.geoportal.gov.pl/imap/Imgp_2.html?locale=pl&gui=new&sessionID=&XY=670752.39,687409.18",
    "source": "curated",
    "osmMatch": null
  },
  {
    "originalId": 0,
    "name": "Staw Browarny",
    "region": "olsztyn",
    "city": "Olsztyn",
    "address": "Osiedle Wojska Polskiego, 10-001 Olsztyn, Polska",
    "latitude": 53.7927201,
    "longitude": 20.481002399999998,
    "sortScore": 4.65,
    "pinVerified": "TAK (Skorygowana)",
    "geoportalLink": "https://mapy.geoportal.gov.pl/imap/Imgp_2.html?locale=pl&gui=new&sessionID=&XY=597528.1,659688.3",
    "source": "curated",
    "osmMatch": null
  },
  {
    "originalId": 0,
    "name": "Łowisko Ihar Bartążek",
    "region": "olsztyn",
    "city": "Bartążek",
    "address": "10-900 Bartążek, Polska",
    "latitude": 53.7081891,
    "longitude": 20.4956388,
    "sortScore": 4.54,
    "pinVerified": "TAK (Skorygowana)",
    "geoportalLink": "https://mapy.geoportal.gov.pl/imap/Imgp_2.html?locale=pl&gui=new&sessionID=&XY=598689.83,650307.72",
    "source": "curated",
    "osmMatch": null
  },
  {
    "originalId": 0,
    "name": "Staw Łowny",
    "region": "olsztyn",
    "city": "Dywity",
    "address": "Dywity, Polska",
    "latitude": 53.8381751,
    "longitude": 20.4149681,
    "sortScore": 4.54,
    "pinVerified": "TAK (Skorygowana)",
    "geoportalLink": "https://mapy.geoportal.gov.pl/imap/Imgp_2.html?locale=pl&gui=new&sessionID=&XY=593079.05,664654.82",
    "source": "curated",
    "osmMatch": null
  },
  {
    "originalId": 0,
    "name": "Staw wędkarski",
    "region": "olsztyn",
    "city": "Olsztyn",
    "address": "Unnamed Road, 11-041 Olsztyn, Polska",
    "latitude": 53.81977,
    "longitude": 20.4222801,
    "sortScore": 4.42,
    "pinVerified": "TAK (Skorygowana)",
    "geoportalLink": "https://mapy.geoportal.gov.pl/imap/Imgp_2.html?locale=pl&gui=new&sessionID=&XY=593601.04,662617.54",
    "source": "curated",
    "osmMatch": null
  },
  {
    "originalId": 0,
    "name": "Staw wędkarski",
    "region": "olsztyn",
    "city": "Nieznane",
    "address": "17, 11-041, Polska",
    "latitude": 53.8265785,
    "longitude": 20.4177411,
    "sortScore": 4.42,
    "pinVerified": "TAK (Skorygowana)",
    "geoportalLink": "https://mapy.geoportal.gov.pl/imap/Imgp_2.html?locale=pl&gui=new&sessionID=&XY=593287.22,663368.76",
    "source": "curated",
    "osmMatch": null
  },
  {
    "originalId": 0,
    "name": "Lowisko.net | MebelTom",
    "region": "olsztyn",
    "city": "Dywity",
    "address": "Olsztyńska 37, 11-041 Dywity, Polska",
    "latitude": 53.8316276,
    "longitude": 20.473220899999998,
    "sortScore": 4.42,
    "pinVerified": "TAK (Skorygowana)",
    "geoportalLink": "https://mapy.geoportal.gov.pl/imap/Imgp_2.html?locale=pl&gui=new&sessionID=&XY=596925.89,664004.64",
    "source": "curated",
    "osmMatch": null
  },
  {
    "originalId": 0,
    "name": "Staw wędkarski",
    "region": "olsztyn",
    "city": "Olsztyn",
    "address": "Redykajny, 11-041 Olsztyn, Polska",
    "latitude": 53.811869699999995,
    "longitude": 20.432194199999998,
    "sortScore": 4.33,
    "pinVerified": "TAK (Skorygowana)",
    "geoportalLink": "https://mapy.geoportal.gov.pl/imap/Imgp_2.html?locale=pl&gui=new&sessionID=&XY=594271.19,661752.04",
    "source": "curated",
    "osmMatch": null
  },
  {
    "originalId": 0,
    "name": "Łowisko Pstrągowe \"Pod Dębem",
    "region": "opole",
    "city": "Przywory",
    "address": "Parkowa 1, 46-050 Przywory, Polska",
    "latitude": 50.5875333,
    "longitude": 17.9873534,
    "sortScore": 5.16,
    "pinVerified": "TAK (Skorygowana)",
    "geoportalLink": "https://mapy.geoportal.gov.pl/imap/Imgp_2.html?locale=pl&gui=new&sessionID=&XY=428337.08,302766.1",
    "source": "curated",
    "osmMatch": null
  },
  {
    "originalId": 0,
    "name": "Łowisko specjalne KAMIEŃ",
    "region": "powiat (polska)",
    "city": "Wola Suchożebrska",
    "address": "Leśna 18, 08-125 Wola Suchożebrska, Polska",
    "latitude": 52.2467689,
    "longitude": 22.223041499999997,
    "sortScore": 5.5,
    "pinVerified": "TAK (Skorygowana)",
    "geoportalLink": "https://mapy.geoportal.gov.pl/imap/Imgp_2.html?locale=pl&gui=new&sessionID=&XY=719949.89,491641.45",
    "source": "verified",
    "osmMatch": {
      "osmName": "Łowisko specjalne Kamień",
      "osmId": 1182715656,
      "distanceKm": 0.112
    }
  },
  {
    "originalId": 0,
    "name": "Łowisko Szpruch",
    "region": "powiat (polska)",
    "city": "Coniew",
    "address": "Coniew 66A, 05-530, Polska",
    "latitude": 51.9422711,
    "longitude": 21.2064795,
    "sortScore": 5.47,
    "pinVerified": "TAK (Skorygowana)",
    "geoportalLink": "https://mapy.geoportal.gov.pl/imap/Imgp_2.html?locale=pl&gui=new&sessionID=&XY=651616.31,455189.6",
    "source": "curated",
    "osmMatch": null
  },
  {
    "originalId": 0,
    "name": "Łowisko komercyjne w Maciejowicach",
    "region": "powiat (polska)",
    "city": "Maciejowice",
    "address": "Rowek 18, 08-480 Maciejowice, Polska",
    "latitude": 51.692327,
    "longitude": 21.556653,
    "sortScore": 5.24,
    "pinVerified": "TAK (Skorygowana)",
    "geoportalLink": "https://mapy.geoportal.gov.pl/imap/Imgp_2.html?locale=pl&gui=new&sessionID=&XY=676649.79,428193.68",
    "source": "curated",
    "osmMatch": null
  },
  {
    "originalId": 0,
    "name": "Łowisko \"Dolina Pięciu Stawów",
    "region": "powiat (polska)",
    "city": "Stefanów",
    "address": "Stefanów 62, 26-315, Polska",
    "latitude": 51.549907,
    "longitude": 20.338199,
    "sortScore": 5.24,
    "pinVerified": "TAK (Skorygowana)",
    "geoportalLink": "https://mapy.geoportal.gov.pl/imap/Imgp_2.html?locale=pl&gui=new&sessionID=&XY=592756.82,410113.92",
    "source": "curated",
    "osmMatch": null
  },
  {
    "originalId": 0,
    "name": "Łowisko Jegiel Agroturystyka",
    "region": "powiat (polska)",
    "city": "Długosiodło",
    "address": "Łowisko Jegiel, 07-210 Długosiodło, Polska",
    "latitude": 52.674230300000005,
    "longitude": 21.5898761,
    "sortScore": 5.23,
    "pinVerified": "TAK (Skorygowana)",
    "geoportalLink": "https://mapy.geoportal.gov.pl/imap/Imgp_2.html?locale=pl&gui=new&sessionID=&XY=675044.65,537427.71",
    "source": "curated",
    "osmMatch": null
  },
  {
    "originalId": 0,
    "name": "Łowisko \"JESIOTR",
    "region": "powiat (polska)",
    "city": "Jaźwie",
    "address": "Ośmiu Stawów 8A, 05-240 Jaźwie, Polska",
    "latitude": 52.389370799999995,
    "longitude": 21.5179886,
    "sortScore": 5.22,
    "pinVerified": "TAK (Skorygowana)",
    "geoportalLink": "https://mapy.geoportal.gov.pl/imap/Imgp_2.html?locale=pl&gui=new&sessionID=&XY=671292.07,505587.09",
    "source": "curated",
    "osmMatch": null
  },
  {
    "originalId": 0,
    "name": "Łowisko Specjalne Wojsze",
    "region": "powiat (polska)",
    "city": "Grodzisk-Wieś",
    "address": "Żwirownia, 07-407 Grodzisk-Wieś, Polska",
    "latitude": 52.972944,
    "longitude": 21.714639,
    "sortScore": 5.19,
    "pinVerified": "TAK (Skorygowana)",
    "geoportalLink": "https://mapy.geoportal.gov.pl/imap/Imgp_2.html?locale=pl&gui=new&sessionID=&XY=682220.92,570946.7",
    "source": "curated",
    "osmMatch": null
  },
  {
    "originalId": 0,
    "name": "Łowisko Wędkarskie Huta-Chojno",
    "region": "powiat (polska)",
    "city": "Huta-Chojno",
    "address": "Huta-Chojno 28, 87-515, Polska",
    "latitude": 52.9946838,
    "longitude": 19.2942572,
    "sortScore": 5.1,
    "pinVerified": "TAK (Skorygowana)",
    "geoportalLink": "https://mapy.geoportal.gov.pl/imap/Imgp_2.html?locale=pl&gui=new&sessionID=&XY=519744.18,569957.42",
    "source": "curated",
    "osmMatch": null
  },
  {
    "originalId": 0,
    "name": "Łowiska Poniaty",
    "region": "powiat (polska)",
    "city": "Poniaty-Cibory",
    "address": "06-120 Poniaty-Cibory, Polska",
    "latitude": 52.615784,
    "longitude": 20.8808447,
    "sortScore": 4.91,
    "pinVerified": "TAK (Skorygowana)",
    "geoportalLink": "https://mapy.geoportal.gov.pl/imap/Imgp_2.html?locale=pl&gui=new&sessionID=&XY=627297.63,529441.95",
    "source": "verified",
    "osmMatch": {
      "osmName": "Łowisko Poniaty - Pod Dębem",
      "osmId": 12252640159,
      "distanceKm": 0.253
    }
  },
  {
    "originalId": 0,
    "name": "Łowisko Rusiec",
    "region": "powiat (polska)",
    "city": "Rusiec",
    "address": "Główna 23, 05-830 Rusiec, Polska",
    "latitude": 52.079855,
    "longitude": 20.800552,
    "sortScore": 4.86,
    "pinVerified": "TAK (Skorygowana)",
    "geoportalLink": "https://mapy.geoportal.gov.pl/imap/Imgp_2.html?locale=pl&gui=new&sessionID=&XY=623346.83,469717.45",
    "source": "curated",
    "osmMatch": null
  },
  {
    "originalId": 0,
    "name": "Łowisko Kuklówka",
    "region": "powiat (polska)",
    "city": "Kuklówka Radziejowicka",
    "address": "Norweska, 96-325 Kuklówka Radziejowicka, Polska",
    "latitude": 52.041498399999995,
    "longitude": 20.590353999999998,
    "sortScore": 4.86,
    "pinVerified": "TAK (Skorygowana)",
    "geoportalLink": "https://mapy.geoportal.gov.pl/imap/Imgp_2.html?locale=pl&gui=new&sessionID=&XY=609041.55,465116.74",
    "source": "curated",
    "osmMatch": null
  },
  {
    "originalId": 0,
    "name": "Łowisko Karpiowa Ostoja",
    "region": "powiat (polska)",
    "city": "Nowa Wieś",
    "address": "Nowa Wieś 12, 96-512, Polska",
    "latitude": 52.347597699999994,
    "longitude": 20.1262705,
    "sortScore": 4.78,
    "pinVerified": "TAK (Skorygowana)",
    "geoportalLink": "https://mapy.geoportal.gov.pl/imap/Imgp_2.html?locale=pl&gui=new&sessionID=&XY=576694.52,498556.4",
    "source": "curated",
    "osmMatch": null
  },
  {
    "originalId": 0,
    "name": "Łowisko Specjalne Okoń",
    "region": "powiat (polska)",
    "city": "Janówek",
    "address": "Nowodworska, 05-124 Janówek, Polska",
    "latitude": 52.4478495,
    "longitude": 20.7920552,
    "sortScore": 4.76,
    "pinVerified": "TAK (Skorygowana)",
    "geoportalLink": "https://mapy.geoportal.gov.pl/imap/Imgp_2.html?locale=pl&gui=new&sessionID=&XY=621752.46,510617.0",
    "source": "curated",
    "osmMatch": null
  },
  {
    "originalId": 0,
    "name": "Łowisko",
    "region": "powiat (polska)",
    "city": "Grzebowilk",
    "address": "05-332 Grzebowilk, Polska",
    "latitude": 52.1113197,
    "longitude": 21.5424983,
    "sortScore": 4.74,
    "pinVerified": "TAK (Skorygowana)",
    "geoportalLink": "https://mapy.geoportal.gov.pl/imap/Imgp_2.html?locale=pl&gui=new&sessionID=&XY=674044.38,474735.39",
    "source": "curated",
    "osmMatch": null
  },
  {
    "originalId": 0,
    "name": "Łowisko Całowanie",
    "region": "powiat (polska)",
    "city": "Nieznane",
    "address": "Unnamed Road, 05-430, Polska",
    "latitude": 52.01191,
    "longitude": 21.344129,
    "sortScore": 4.72,
    "pinVerified": "TAK (Skorygowana)",
    "geoportalLink": "https://mapy.geoportal.gov.pl/imap/Imgp_2.html?locale=pl&gui=new&sessionID=&XY=660823.91,463226.99",
    "source": "curated",
    "osmMatch": null
  },
  {
    "originalId": 0,
    "name": "Łowisko Stara Cegielnia",
    "region": "powiat (polska)",
    "city": "Stanisławów",
    "address": "10, 05-252 Stanisławów, Polska",
    "latitude": 52.4839232,
    "longitude": 21.266468,
    "sortScore": 4.71,
    "pinVerified": "TAK (Skorygowana)",
    "geoportalLink": "https://mapy.geoportal.gov.pl/imap/Imgp_2.html?locale=pl&gui=new&sessionID=&XY=653854.4,515532.82",
    "source": "verified",
    "osmMatch": {
      "osmName": "Łowisko Stara Cegielnia",
      "osmId": 11262690558,
      "distanceKm": 0.005
    }
  },
  {
    "originalId": 0,
    "name": "Łowisko w Milewie",
    "region": "powiat (polska)",
    "city": "Milewo",
    "address": "Milewo, Polska",
    "latitude": 52.7861695,
    "longitude": 19.9626061,
    "sortScore": 4.67,
    "pinVerified": "TAK (Skorygowana)",
    "geoportalLink": "https://mapy.geoportal.gov.pl/imap/Imgp_2.html?locale=pl&gui=new&sessionID=&XY=564899.26,547163.02",
    "source": "curated",
    "osmMatch": null
  },
  {
    "originalId": 0,
    "name": "Łowisko Wilga Wodna Kraina",
    "region": "powiat (polska)",
    "city": "Wilga",
    "address": "Stawowa 10, 08-470 Wilga, Polska",
    "latitude": 51.840206,
    "longitude": 21.385274,
    "sortScore": 4.57,
    "pinVerified": "TAK (Skorygowana)",
    "geoportalLink": "https://mapy.geoportal.gov.pl/imap/Imgp_2.html?locale=pl&gui=new&sessionID=&XY=664272.26,444231.37",
    "source": "curated",
    "osmMatch": null
  },
  {
    "originalId": 0,
    "name": "Łowisko Komercyjne Gruba Ryba Kierz 7 Skępe",
    "region": "powiat aleksandrowski",
    "city": "Skępe",
    "address": "Kierz 7, 87-630 Skępe, Polska",
    "latitude": 52.8840194,
    "longitude": 19.308798,
    "sortScore": 5.5,
    "pinVerified": "TAK (Skorygowana)",
    "geoportalLink": "https://mapy.geoportal.gov.pl/imap/Imgp_2.html?locale=pl&gui=new&sessionID=&XY=520772.78,557654.89",
    "source": "curated",
    "osmMatch": null
  },
  {
    "originalId": 0,
    "name": "Łowisko Sieroszewo",
    "region": "powiat aleksandrowski",
    "city": "Czuple",
    "address": "87-851 Czuple, Polska",
    "latitude": 52.4884876,
    "longitude": 18.9493108,
    "sortScore": 5.36,
    "pinVerified": "TAK (Skorygowana)",
    "geoportalLink": "https://mapy.geoportal.gov.pl/imap/Imgp_2.html?locale=pl&gui=new&sessionID=&XY=496559.2,513627.35",
    "source": "curated",
    "osmMatch": null
  },
  {
    "originalId": 0,
    "name": "Łowisko Wędkarskie Rybie Oko Agroturystyka Domki Letniskowe Jezioro Bar Noclegi Ryby",
    "region": "powiat aleksandrowski",
    "city": "Kępka Szlachecka",
    "address": "Kępka Szlachecka 1, 87-820, Polska",
    "latitude": 52.47734260000001,
    "longitude": 19.100771299999998,
    "sortScore": 5.28,
    "pinVerified": "TAK (Skorygowana)",
    "geoportalLink": "https://mapy.geoportal.gov.pl/imap/Imgp_2.html?locale=pl&gui=new&sessionID=&XY=506842.13,512391.61",
    "source": "curated",
    "osmMatch": null
  },
  {
    "originalId": 0,
    "name": "Łowisko Borowy Staw",
    "region": "powiat aleksandrowski",
    "city": "Piorunów",
    "address": "62-710 Piorunów, Polska",
    "latitude": 52.138250899999996,
    "longitude": 18.4284772,
    "sortScore": 5.08,
    "pinVerified": "TAK (Skorygowana)",
    "geoportalLink": "https://mapy.geoportal.gov.pl/imap/Imgp_2.html?locale=pl&gui=new&sessionID=&XY=460897.53,474835.41",
    "source": "curated",
    "osmMatch": null
  },
  {
    "originalId": 0,
    "name": "Łowisko Grąblin",
    "region": "powiat aleksandrowski",
    "city": "Grąblin",
    "address": "Spokojna 6, 62-563 Grąblin, Polska",
    "latitude": 52.282683,
    "longitude": 18.346159099999998,
    "sortScore": 5.02,
    "pinVerified": "TAK (Skorygowana)",
    "geoportalLink": "https://mapy.geoportal.gov.pl/imap/Imgp_2.html?locale=pl&gui=new&sessionID=&XY=455410.38,490942.6",
    "source": "curated",
    "osmMatch": null
  },
  {
    "originalId": 0,
    "name": "Łowisko Michałowo",
    "region": "powiat aleksandrowski",
    "city": "Gniewkowo",
    "address": "Unnamed Road, 88-140 Gniewkowo, Polska",
    "latitude": 52.906862600000004,
    "longitude": 18.452737,
    "sortScore": 4.99,
    "pinVerified": "TAK (Skorygowana)",
    "geoportalLink": "https://mapy.geoportal.gov.pl/imap/Imgp_2.html?locale=pl&gui=new&sessionID=&XY=463205.19,560290.73",
    "source": "curated",
    "osmMatch": null
  },
  {
    "originalId": 0,
    "name": "Stawy rybne - Karwicki",
    "region": "powiat aleksandrowski",
    "city": "Pruska Łąka 65",
    "address": "Kowalewo Pomorskie, 87-410 Pruska Łąka 65, Polska",
    "latitude": 53.100491999999996,
    "longitude": 18.820394999999998,
    "sortScore": 4.83,
    "pinVerified": "TAK (Skorygowana)",
    "geoportalLink": "https://mapy.geoportal.gov.pl/imap/Imgp_2.html?locale=pl&gui=new&sessionID=&XY=487978.26,581698.86",
    "source": "curated",
    "osmMatch": null
  },
  {
    "originalId": 0,
    "name": "Staw na Słodowie",
    "region": "powiat aleksandrowski",
    "city": "Włocławek",
    "address": "Szpitalna 33, 87-816 Włocławek, Polska",
    "latitude": 52.658695699999996,
    "longitude": 19.0491648,
    "sortScore": 4.74,
    "pinVerified": "TAK (Skorygowana)",
    "geoportalLink": "https://mapy.geoportal.gov.pl/imap/Imgp_2.html?locale=pl&gui=new&sessionID=&XY=503324.43,532554.48",
    "source": "verified",
    "osmMatch": {
      "osmName": "",
      "osmId": 13289473013,
      "distanceKm": 0.984
    }
  },
  {
    "originalId": 0,
    "name": "Łowisko u Kazika",
    "region": "powiat aleksandrowski",
    "city": "Wierzbinek",
    "address": "100, 62-619 Wierzbinek, Polska",
    "latitude": 52.4376636,
    "longitude": 18.5124158,
    "sortScore": 4.68,
    "pinVerified": "TAK (Skorygowana)",
    "geoportalLink": "https://mapy.geoportal.gov.pl/imap/Imgp_2.html?locale=pl&gui=new&sessionID=&XY=466864.54,508086.37",
    "source": "curated",
    "osmMatch": null
  },
  {
    "originalId": 0,
    "name": "Łowisko Wędkarskie No Kill",
    "region": "powiat aleksandrowski",
    "city": "Mała Nieszawka",
    "address": "Lipowa 5, 87-103 Mała Nieszawka, Polska",
    "latitude": 52.991043499999996,
    "longitude": 18.552512999999998,
    "sortScore": 4.61,
    "pinVerified": "TAK (Skorygowana)",
    "geoportalLink": "https://mapy.geoportal.gov.pl/imap/Imgp_2.html?locale=pl&gui=new&sessionID=&XY=469971.87,569605.74",
    "source": "verified",
    "osmMatch": {
      "osmName": "No Kill",
      "osmId": 12884593343,
      "distanceKm": 0.035
    }
  },
  {
    "originalId": 0,
    "name": "DELMAJK - Łowisko Wędkarskie Pod Wierzbą",
    "region": "powiat aleksandrowski",
    "city": "Mała Nieszawka",
    "address": "Toruńska 186, 87-103 Mała Nieszawka, Polska",
    "latitude": 52.9932617,
    "longitude": 18.523118699999998,
    "sortScore": 4.61,
    "pinVerified": "TAK (Skorygowana)",
    "geoportalLink": "https://mapy.geoportal.gov.pl/imap/Imgp_2.html?locale=pl&gui=new&sessionID=&XY=468001.04,569865.13",
    "source": "verified",
    "osmMatch": {
      "osmName": "",
      "osmId": 1116073311,
      "distanceKm": 0.081
    }
  },
  {
    "originalId": 0,
    "name": "Łowisko Foluszek",
    "region": "powiat aleksandrowski",
    "city": "Foluszek",
    "address": "Foluszek 1, 87-327 Anielewo, Polska",
    "latitude": 53.3219141,
    "longitude": 19.3580418,
    "sortScore": 4.59,
    "pinVerified": "TAK (Skorygowana)",
    "geoportalLink": "https://mapy.geoportal.gov.pl/imap/Imgp_2.html?locale=pl&gui=new&sessionID=&XY=523842.02,606368.4",
    "source": "curated",
    "osmMatch": null
  },
  {
    "originalId": 0,
    "name": "Łowisko Bądkowo",
    "region": "powiat aleksandrowski",
    "city": "Bądkowo",
    "address": "Włocławska 12, 87-704 Bądkowo, Polska",
    "latitude": 52.7014034,
    "longitude": 18.793917,
    "sortScore": 4.52,
    "pinVerified": "TAK (Skorygowana)",
    "geoportalLink": "https://mapy.geoportal.gov.pl/imap/Imgp_2.html?locale=pl&gui=new&sessionID=&XY=486078.65,537322.46",
    "source": "curated",
    "osmMatch": null
  },
  {
    "originalId": 0,
    "name": "Łowisko u Staszaka",
    "region": "powiat aleksandrowski",
    "city": "Piotrków Kujawski",
    "address": "Topolowa 8, 88-230 Piotrków Kujawski, Polska",
    "latitude": 52.5461925,
    "longitude": 18.4840196,
    "sortScore": 4.52,
    "pinVerified": "TAK (Skorygowana)",
    "geoportalLink": "https://mapy.geoportal.gov.pl/imap/Imgp_2.html?locale=pl&gui=new&sessionID=&XY=465021.01,520167.92",
    "source": "curated",
    "osmMatch": null
  },
  {
    "originalId": 0,
    "name": "Łowisko Warzyn",
    "region": "powiat aleksandrowski",
    "city": "Warzyn",
    "address": "88-140 Warzyn, Polska",
    "latitude": 52.895684,
    "longitude": 18.507675,
    "sortScore": 4.48,
    "pinVerified": "TAK (Skorygowana)",
    "geoportalLink": "https://mapy.geoportal.gov.pl/imap/Imgp_2.html?locale=pl&gui=new&sessionID=&XY=466890.36,559020.88",
    "source": "curated",
    "osmMatch": null
  },
  {
    "originalId": 0,
    "name": "Łowisko",
    "region": "powiat aleksandrowski",
    "city": "Chełmce",
    "address": "Chełmiczki 5, 88-121 Chełmce, Polska",
    "latitude": 52.6081763,
    "longitude": 18.4413068,
    "sortScore": 4.47,
    "pinVerified": "TAK (Skorygowana)",
    "geoportalLink": "https://mapy.geoportal.gov.pl/imap/Imgp_2.html?locale=pl&gui=new&sessionID=&XY=462178.86,527082.02",
    "source": "curated",
    "osmMatch": null
  },
  {
    "originalId": 0,
    "name": "Łowisko Wędkarskie - Młyniec Pierwszy",
    "region": "powiat aleksandrowski",
    "city": "Młyniec Pierwszy",
    "address": "Bierzgalska 14, 87-162 Młyniec Pierwszy, Polska",
    "latitude": 53.080198599999996,
    "longitude": 18.822082299999998,
    "sortScore": 4.44,
    "pinVerified": "TAK (Skorygowana)",
    "geoportalLink": "https://mapy.geoportal.gov.pl/imap/Imgp_2.html?locale=pl&gui=new&sessionID=&XY=488085.6,579441.75",
    "source": "curated",
    "osmMatch": null
  },
  {
    "originalId": 0,
    "name": "Łowisko Ziomka",
    "region": "powiat aleksandrowski",
    "city": "Kaniewo",
    "address": "Kaniewo 7, 87-851, Polska",
    "latitude": 52.498117900000004,
    "longitude": 18.9308287,
    "sortScore": 4.43,
    "pinVerified": "TAK (Skorygowana)",
    "geoportalLink": "https://mapy.geoportal.gov.pl/imap/Imgp_2.html?locale=pl&gui=new&sessionID=&XY=495305.65,514699.27",
    "source": "curated",
    "osmMatch": null
  },
  {
    "originalId": 0,
    "name": "Łowisko Redyki",
    "region": "powiat augustowski",
    "city": "Dubeninki",
    "address": "19-504 Redyki, Polska",
    "latitude": 54.342571799999995,
    "longitude": 22.7927239,
    "sortScore": 5.57,
    "pinVerified": "TAK (Skorygowana)",
    "geoportalLink": "https://mapy.geoportal.gov.pl/imap/Imgp_2.html?locale=pl&gui=new&sessionID=&XY=746434.14,726461.55",
    "source": "verified",
    "osmMatch": {
      "osmName": "Łowisko redyki",
      "osmId": 12193100834,
      "distanceKm": 0.162
    }
  },
  {
    "originalId": 0,
    "name": "Smażalnia Ryb Gospodarstwo Rybackie Augustów",
    "region": "powiat augustowski",
    "city": "Augustów",
    "address": "Turystyczna 7, 16-300 Augustów, Polska",
    "latitude": 53.857648499999996,
    "longitude": 23.0175259,
    "sortScore": 5.43,
    "pinVerified": "TAK (Skorygowana)",
    "geoportalLink": "https://mapy.geoportal.gov.pl/imap/Imgp_2.html?locale=pl&gui=new&sessionID=&XY=764099.62,673375.26",
    "source": "curated",
    "osmMatch": null
  },
  {
    "originalId": 0,
    "name": "SELWA",
    "region": "powiat augustowski",
    "city": "Supraśl",
    "address": "Józefa Piłsudskiego, 16-030 Supraśl, Polska",
    "latitude": 53.207961999999995,
    "longitude": 23.335231099999998,
    "sortScore": 5.41,
    "pinVerified": "TAK (Skorygowana)",
    "geoportalLink": "https://mapy.geoportal.gov.pl/imap/Imgp_2.html?locale=pl&gui=new&sessionID=&XY=789374.38,602409.89",
    "source": "curated",
    "osmMatch": null
  },
  {
    "originalId": 0,
    "name": "Łowisko Krasne Ryby",
    "region": "powiat augustowski",
    "city": "Milewskie",
    "address": "64, Kolonia, 19-122 Milewskie, Polska",
    "latitude": 53.353199399999994,
    "longitude": 23.062378300000002,
    "sortScore": 5.25,
    "pinVerified": "TAK (Skorygowana)",
    "geoportalLink": "https://mapy.geoportal.gov.pl/imap/Imgp_2.html?locale=pl&gui=new&sessionID=&XY=770251.62,617480.44",
    "source": "curated",
    "osmMatch": null
  },
  {
    "originalId": 0,
    "name": "Stawy Dylewskie",
    "region": "powiat augustowski",
    "city": "Rypin",
    "address": "Dylewo 23, 87-500 Rypin, Polska",
    "latitude": 53.0336334,
    "longitude": 19.4468253,
    "sortScore": 4.96,
    "pinVerified": "TAK (Skorygowana)",
    "geoportalLink": "https://mapy.geoportal.gov.pl/imap/Imgp_2.html?locale=pl&gui=new&sessionID=&XY=529954.23,574341.79",
    "source": "curated",
    "osmMatch": null
  },
  {
    "originalId": 0,
    "name": "ŁOWISKO MARIO",
    "region": "powiat augustowski",
    "city": "Gajewo",
    "address": "Pomidorowa 20, 11-500 Gajewo, Polska",
    "latitude": 54.0532317,
    "longitude": 21.7811073,
    "sortScore": 4.89,
    "pinVerified": "TAK (Skorygowana)",
    "geoportalLink": "https://mapy.geoportal.gov.pl/imap/Imgp_2.html?locale=pl&gui=new&sessionID=&XY=681990.86,691223.65",
    "source": "curated",
    "osmMatch": null
  },
  {
    "originalId": 0,
    "name": "Lisy, Łowisko",
    "region": "powiat augustowski",
    "city": "Banie Mazurskie",
    "address": "19-520 Banie Mazurskie, Polska",
    "latitude": 54.2220714,
    "longitude": 22.0468498,
    "sortScore": 4.82,
    "pinVerified": "TAK (Skorygowana)",
    "geoportalLink": "https://mapy.geoportal.gov.pl/imap/Imgp_2.html?locale=pl&gui=new&sessionID=&XY=698565.97,710711.71",
    "source": "curated",
    "osmMatch": null
  },
  {
    "originalId": 0,
    "name": "Łowisko Karpiowe Wilkasy",
    "region": "powiat augustowski",
    "city": "Gołdap",
    "address": "Wilkasy 12, 19-500 Gołdap, Polska",
    "latitude": 54.205605,
    "longitude": 22.369305,
    "sortScore": 4.77,
    "pinVerified": "TAK (Skorygowana)",
    "geoportalLink": "https://mapy.geoportal.gov.pl/imap/Imgp_2.html?locale=pl&gui=new&sessionID=&XY=719660.82,709836.41",
    "source": "curated",
    "osmMatch": null
  },
  {
    "originalId": 0,
    "name": "ŁOWISKO RYB CZECHOWIZNA",
    "region": "powiat augustowski",
    "city": "Czechowizna",
    "address": "Czechowizna, Polska",
    "latitude": 53.3417117,
    "longitude": 22.8476073,
    "sortScore": 4.72,
    "pinVerified": "TAK (Skorygowana)",
    "geoportalLink": "https://mapy.geoportal.gov.pl/imap/Imgp_2.html?locale=pl&gui=new&sessionID=&XY=756039.09,615411.46",
    "source": "curated",
    "osmMatch": null
  },
  {
    "originalId": 0,
    "name": "Łowisko Kruklin",
    "region": "powiat augustowski",
    "city": "Nieznane",
    "address": "11-500, Polska",
    "latitude": 54.0240443,
    "longitude": 21.8962948,
    "sortScore": 4.69,
    "pinVerified": "TAK (Skorygowana)",
    "geoportalLink": "https://mapy.geoportal.gov.pl/imap/Imgp_2.html?locale=pl&gui=new&sessionID=&XY=689659.47,688280.98",
    "source": "curated",
    "osmMatch": null
  },
  {
    "originalId": 0,
    "name": "Łowisko Jezioro Bogusze",
    "region": "powiat augustowski",
    "city": "Bogusze",
    "address": "Bojowników, 19-335 Bogusze, Polska",
    "latitude": 53.6849771,
    "longitude": 22.4490958,
    "sortScore": 4.59,
    "pinVerified": "TAK (Skorygowana)",
    "geoportalLink": "https://mapy.geoportal.gov.pl/imap/Imgp_2.html?locale=pl&gui=new&sessionID=&XY=727680.84,652212.52",
    "source": "curated",
    "osmMatch": null
  },
  {
    "originalId": 0,
    "name": "Łowisko Wędkarskie \"Romanówka\" Gołdap",
    "region": "powiat augustowski",
    "city": "Wrotkowo",
    "address": "1, 19-500 Wrotkowo, Polska",
    "latitude": 54.244424699999996,
    "longitude": 22.3558094,
    "sortScore": 4.48,
    "pinVerified": "TAK (Skorygowana)",
    "geoportalLink": "https://mapy.geoportal.gov.pl/imap/Imgp_2.html?locale=pl&gui=new&sessionID=&XY=718575.98,714110.11",
    "source": "curated",
    "osmMatch": null
  },
  {
    "originalId": 0,
    "name": "Staw komercyjny",
    "region": "powiat augustowski",
    "city": "Koniecbór",
    "address": "XRXV+VF, 16-420 Koniecbór, Polska",
    "latitude": 53.999703,
    "longitude": 22.8437449,
    "sortScore": 4.48,
    "pinVerified": "TAK (Skorygowana)",
    "geoportalLink": "https://mapy.geoportal.gov.pl/imap/Imgp_2.html?locale=pl&gui=new&sessionID=&XY=751823.67,688530.88",
    "source": "curated",
    "osmMatch": null
  },
  {
    "originalId": 0,
    "name": "Łowisko specjalne Gałkowo fishing club",
    "region": "powiat augustowski",
    "city": "Ukta",
    "address": "Ukta 116C, 12-220, Polska",
    "latitude": 53.687623699999996,
    "longitude": 21.4727501,
    "sortScore": 4.48,
    "pinVerified": "TAK (Skorygowana)",
    "geoportalLink": "https://mapy.geoportal.gov.pl/imap/Imgp_2.html?locale=pl&gui=new&sessionID=&XY=663234.58,649821.2",
    "source": "curated",
    "osmMatch": null
  },
  {
    "originalId": 0,
    "name": "Stawy Duchnowskie",
    "region": "powiat augustowski",
    "city": "Wiązowna",
    "address": "05-462 Wiązowna, Polska",
    "latitude": 52.1904487,
    "longitude": 21.3526646,
    "sortScore": 4.46,
    "pinVerified": "TAK (Skorygowana)",
    "geoportalLink": "https://mapy.geoportal.gov.pl/imap/Imgp_2.html?locale=pl&gui=new&sessionID=&XY=660765.97,483093.79",
    "source": "curated",
    "osmMatch": null
  },
  {
    "originalId": 0,
    "name": "Łowisko specjalne Flosek",
    "region": "powiat augustowski",
    "city": "Iznota",
    "address": "12-220 Flosek, Polska",
    "latitude": 53.7477099,
    "longitude": 21.5594008,
    "sortScore": 4.41,
    "pinVerified": "TAK (Skorygowana)",
    "geoportalLink": "https://mapy.geoportal.gov.pl/imap/Imgp_2.html?locale=pl&gui=new&sessionID=&XY=668712.84,656704.6",
    "source": "verified",
    "osmMatch": {
      "osmName": "Flosek",
      "osmId": 31033225,
      "distanceKm": 0.175
    }
  },
  {
    "originalId": 0,
    "name": "Łowisko Ryszard i Anna Tymcio",
    "region": "powiat augustowski",
    "city": "Jakunówko",
    "address": "Jakunówko 32, 11-610, Polska",
    "latitude": 54.1659448,
    "longitude": 21.9971687,
    "sortScore": 4.35,
    "pinVerified": "TAK (Skorygowana)",
    "geoportalLink": "https://mapy.geoportal.gov.pl/imap/Imgp_2.html?locale=pl&gui=new&sessionID=&XY=695594.13,704332.77",
    "source": "curated",
    "osmMatch": null
  },
  {
    "originalId": 0,
    "name": "Łowisko Ryby",
    "region": "powiat augustowski",
    "city": "Kruklanki",
    "address": "Kruklanki, Polska",
    "latitude": 54.0676567,
    "longitude": 21.9207991,
    "sortScore": 4.24,
    "pinVerified": "TAK (Skorygowana)",
    "geoportalLink": "https://mapy.geoportal.gov.pl/imap/Imgp_2.html?locale=pl&gui=new&sessionID=&XY=691063.4,693195.9",
    "source": "curated",
    "osmMatch": null
  },
  {
    "originalId": 0,
    "name": "Domki nad łowiskiem, Łowisko karpiowe, Łowisko wędkarskie Warmia Mazury, Noclegi nad łowiskiem karpiowym.",
    "region": "powiat bartoszycki",
    "city": "Workiejmy",
    "address": "Workiejmy 1A, 11-100, Polska",
    "latitude": 54.178691,
    "longitude": 20.4532739,
    "sortScore": 5.19,
    "pinVerified": "TAK (Skorygowana)",
    "geoportalLink": "https://mapy.geoportal.gov.pl/imap/Imgp_2.html?locale=pl&gui=new&sessionID=&XY=594821.34,702576.63",
    "source": "curated",
    "osmMatch": null
  },
  {
    "originalId": 0,
    "name": "Łowisko Muławki",
    "region": "powiat bartoszycki",
    "city": "Muławki",
    "address": "Muławki 6, 11-400, Polska",
    "latitude": 54.052906,
    "longitude": 21.336772,
    "sortScore": 4.93,
    "pinVerified": "TAK (Skorygowana)",
    "geoportalLink": "https://mapy.geoportal.gov.pl/imap/Imgp_2.html?locale=pl&gui=new&sessionID=&XY=652921.0,690135.61",
    "source": "curated",
    "osmMatch": null
  },
  {
    "originalId": 0,
    "name": "Łowisko Rogiedle",
    "region": "powiat bartoszycki",
    "city": "Rogiedle",
    "address": "Rogiedle 60, 11-135, Polska",
    "latitude": 54.0394419,
    "longitude": 20.2843663,
    "sortScore": 4.82,
    "pinVerified": "TAK (Skorygowana)",
    "geoportalLink": "https://mapy.geoportal.gov.pl/imap/Imgp_2.html?locale=pl&gui=new&sessionID=&XY=584082.6,686875.78",
    "source": "curated",
    "osmMatch": null
  },
  {
    "originalId": 0,
    "name": "Łowisko Specjalne Młyn w Rańsku",
    "region": "powiat bartoszycki",
    "city": "Rańsk",
    "address": "1, Rańsk 17, 12-120, Polska",
    "latitude": 53.7085151,
    "longitude": 21.097265,
    "sortScore": 4.59,
    "pinVerified": "TAK (Skorygowana)",
    "geoportalLink": "https://mapy.geoportal.gov.pl/imap/Imgp_2.html?locale=pl&gui=new&sessionID=&XY=638382.57,651347.44",
    "source": "curated",
    "osmMatch": null
  },
  {
    "originalId": 0,
    "name": "Stawy hodowlane Cieślak. Łowiska",
    "region": "powiat bartoszycki",
    "city": "Napraty",
    "address": "Napraty 10, 11-106, Polska",
    "latitude": 54.148174,
    "longitude": 20.7048576,
    "sortScore": 4.57,
    "pinVerified": "TAK (Skorygowana)",
    "geoportalLink": "https://mapy.geoportal.gov.pl/imap/Imgp_2.html?locale=pl&gui=new&sessionID=&XY=611316.84,699549.58",
    "source": "curated",
    "osmMatch": null
  },
  {
    "originalId": 0,
    "name": "Łowisko komercyjne",
    "region": "powiat bartoszycki",
    "city": "Nowy Dwór",
    "address": "5522+MM, 11-130 Nowy Dwór, Polska",
    "latitude": 54.1516364,
    "longitude": 20.1516499,
    "sortScore": 4.38,
    "pinVerified": "TAK (Skorygowana)",
    "geoportalLink": "https://mapy.geoportal.gov.pl/imap/Imgp_2.html?locale=pl&gui=new&sessionID=&XY=575191.35,699204.74",
    "source": "curated",
    "osmMatch": null
  },
  {
    "originalId": 0,
    "name": "Łowisko",
    "region": "powiat bartoszycki",
    "city": "Nieznane",
    "address": "Unnamed Road, 12-120, Polska",
    "latitude": 53.697871,
    "longitude": 20.903582,
    "sortScore": 4.33,
    "pinVerified": "TAK (Skorygowana)",
    "geoportalLink": "https://mapy.geoportal.gov.pl/imap/Imgp_2.html?locale=pl&gui=new&sessionID=&XY=625636.09,649804.04",
    "source": "curated",
    "osmMatch": null
  },
  {
    "originalId": 0,
    "name": "Łowisko szczupaka Dziewiszewo",
    "region": "powiat bartoszycki",
    "city": "Dziewiszewo",
    "address": "Dziewiszewo 1, 11-500, Polska",
    "latitude": 54.065618199999996,
    "longitude": 21.613284999999998,
    "sortScore": 4.3,
    "pinVerified": "TAK (Skorygowana)",
    "geoportalLink": "https://mapy.geoportal.gov.pl/imap/Imgp_2.html?locale=pl&gui=new&sessionID=&XY=670960.4,692182.19",
    "source": "curated",
    "osmMatch": null
  },
  {
    "originalId": 0,
    "name": "Zalew. Ośrodek rybacki",
    "region": "powiat bartoszycki",
    "city": "Woryny",
    "address": "11-220 Woryny, Polska",
    "latitude": 54.3034701,
    "longitude": 20.5830882,
    "sortScore": 4.23,
    "pinVerified": "TAK (Skorygowana)",
    "geoportalLink": "https://mapy.geoportal.gov.pl/imap/Imgp_2.html?locale=pl&gui=new&sessionID=&XY=602979.41,716636.34",
    "source": "curated",
    "osmMatch": null
  },
  {
    "originalId": 0,
    "name": "Stawy Knopin",
    "region": "powiat bartoszycki",
    "city": "Knopin",
    "address": "11-040 Knopin, Polska",
    "latitude": 53.967023999999995,
    "longitude": 20.4048591,
    "sortScore": 4.2,
    "pinVerified": "TAK (Skorygowana)",
    "geoportalLink": "https://mapy.geoportal.gov.pl/imap/Imgp_2.html?locale=pl&gui=new&sessionID=&XY=592130.14,678971.54",
    "source": "curated",
    "osmMatch": null
  },
  {
    "originalId": 0,
    "name": "Łowisko u Makary",
    "region": "powiat bełchatowski",
    "city": "Kluki",
    "address": "Smugi 1, 97-415 Kluki, Polska",
    "latitude": 51.2990574,
    "longitude": 19.2471557,
    "sortScore": 5.4,
    "pinVerified": "TAK (Skorygowana)",
    "geoportalLink": "https://mapy.geoportal.gov.pl/imap/Imgp_2.html?locale=pl&gui=new&sessionID=&XY=517225.91,381405.45",
    "source": "curated",
    "osmMatch": null
  },
  {
    "originalId": 0,
    "name": "Łowisko Rokitnica",
    "region": "powiat bełchatowski",
    "city": "Łask",
    "address": "Rokitnica 51, 98-100 Łask, Polska",
    "latitude": 51.5773279,
    "longitude": 19.222402000000002,
    "sortScore": 5.14,
    "pinVerified": "TAK (Skorygowana)",
    "geoportalLink": "https://mapy.geoportal.gov.pl/imap/Imgp_2.html?locale=pl&gui=new&sessionID=&XY=515406.76,412337.65",
    "source": "curated",
    "osmMatch": null
  },
  {
    "originalId": 0,
    "name": "Stawy specjalne",
    "region": "powiat bełchatowski",
    "city": "Kamieńsk",
    "address": "Zjednoczenia, 97-360 Kamieńsk, Polska",
    "latitude": 51.205818699999995,
    "longitude": 19.503487700000004,
    "sortScore": 5.06,
    "pinVerified": "TAK (Skorygowana)",
    "geoportalLink": "https://mapy.geoportal.gov.pl/imap/Imgp_2.html?locale=pl&gui=new&sessionID=&XY=535162.34,371131.03",
    "source": "curated",
    "osmMatch": null
  },
  {
    "originalId": 0,
    "name": "Łowisko komercyjne Nad Bzurą - wjazd",
    "region": "powiat bełchatowski",
    "city": "Ruda-Bugaj",
    "address": "Ruda-Bugaj 19, 95-070, Polska",
    "latitude": 51.8368101,
    "longitude": 19.2794445,
    "sortScore": 4.93,
    "pinVerified": "TAK (Skorygowana)",
    "geoportalLink": "https://mapy.geoportal.gov.pl/imap/Imgp_2.html?locale=pl&gui=new&sessionID=&XY=519247.9,441201.37",
    "source": "curated",
    "osmMatch": null
  },
  {
    "originalId": 0,
    "name": "Koi Lakes Łowisko",
    "region": "powiat bełchatowski",
    "city": "Ciężków",
    "address": "Nowy Adamów 28, 95-070 Ciężków, Polska",
    "latitude": 51.8391263,
    "longitude": 19.2119028,
    "sortScore": 4.92,
    "pinVerified": "TAK (Skorygowana)",
    "geoportalLink": "https://mapy.geoportal.gov.pl/imap/Imgp_2.html?locale=pl&gui=new&sessionID=&XY=514594.94,441443.22",
    "source": "curated",
    "osmMatch": null
  },
  {
    "originalId": 0,
    "name": "Łowisko ryb",
    "region": "powiat bełchatowski",
    "city": "Karsznice",
    "address": "Reymonta 16, 98-220 Karsznice, Polska",
    "latitude": 51.5824631,
    "longitude": 19.0111699,
    "sortScore": 4.8,
    "pinVerified": "TAK (Skorygowana)",
    "geoportalLink": "https://mapy.geoportal.gov.pl/imap/Imgp_2.html?locale=pl&gui=new&sessionID=&XY=500773.7,412885.22",
    "source": "verified",
    "osmMatch": {
      "osmName": "",
      "osmId": 1413326891,
      "distanceKm": 0.049
    }
  },
  {
    "originalId": 0,
    "name": "Łowisko Wędkarskie Drużbice",
    "region": "powiat bełchatowski",
    "city": "Drużbice-Kolonia",
    "address": "Drużbice-Kolonia 104, 97-403, Polska",
    "latitude": 51.4602928,
    "longitude": 19.3888283,
    "sortScore": 4.77,
    "pinVerified": "TAK (Skorygowana)",
    "geoportalLink": "https://mapy.geoportal.gov.pl/imap/Imgp_2.html?locale=pl&gui=new&sessionID=&XY=527004.93,399373.9",
    "source": "curated",
    "osmMatch": null
  },
  {
    "originalId": 0,
    "name": "I Ług (pierwszy)",
    "region": "powiat bełchatowski",
    "city": "Bełchatów",
    "address": "97-400 Bełchatów, Polska",
    "latitude": 51.3621218,
    "longitude": 19.3421005,
    "sortScore": 4.75,
    "pinVerified": "TAK (Skorygowana)",
    "geoportalLink": "https://mapy.geoportal.gov.pl/imap/Imgp_2.html?locale=pl&gui=new&sessionID=&XY=523810.54,388443.27",
    "source": "curated",
    "osmMatch": null
  },
  {
    "originalId": 0,
    "name": "Czarny Staw - Łowisko PFWK",
    "region": "powiat bełchatowski",
    "city": "Kalinów",
    "address": "Kalinów, Polska",
    "latitude": 51.9336123,
    "longitude": 19.6993711,
    "sortScore": 4.69,
    "pinVerified": "TAK (Skorygowana)",
    "geoportalLink": "https://mapy.geoportal.gov.pl/imap/Imgp_2.html?locale=pl&gui=new&sessionID=&XY=548068.48,452158.61",
    "source": "curated",
    "osmMatch": null
  },
  {
    "originalId": 0,
    "name": "Łowisko Biestrzyków",
    "region": "powiat bełchatowski",
    "city": "Biestrzyków",
    "address": "Biestrzyków, Polska",
    "latitude": 51.067187499999996,
    "longitude": 19.6995988,
    "sortScore": 4.62,
    "pinVerified": "TAK (Skorygowana)",
    "geoportalLink": "https://mapy.geoportal.gov.pl/imap/Imgp_2.html?locale=pl&gui=new&sessionID=&XY=549004.67,355831.3",
    "source": "curated",
    "osmMatch": null
  },
  {
    "originalId": 0,
    "name": "Łowisko Masłowice",
    "region": "powiat bełchatowski",
    "city": "Masłowice",
    "address": "Masłowice, Polska",
    "latitude": 51.248901,
    "longitude": 18.636139099999998,
    "sortScore": 4.48,
    "pinVerified": "TAK (Skorygowana)",
    "geoportalLink": "https://mapy.geoportal.gov.pl/imap/Imgp_2.html?locale=pl&gui=new&sessionID=&XY=474612.53,375863.15",
    "source": "curated",
    "osmMatch": null
  },
  {
    "originalId": 0,
    "name": "Staw Moczybrody",
    "region": "powiat bełchatowski",
    "city": "Zelów",
    "address": "Zelów, Polska",
    "latitude": 51.407953199999994,
    "longitude": 19.1962246,
    "sortScore": 4.33,
    "pinVerified": "TAK (Skorygowana)",
    "geoportalLink": "https://mapy.geoportal.gov.pl/imap/Imgp_2.html?locale=pl&gui=new&sessionID=&XY=513643.8,393501.44",
    "source": "curated",
    "osmMatch": null
  },
  {
    "originalId": 0,
    "name": "Łowisko Bobrowisko",
    "region": "powiat bialski",
    "city": "Siennica Różana",
    "address": "Siennica Różana 223A, 22-304, Polska",
    "latitude": 50.9997202,
    "longitude": 23.289645399999998,
    "sortScore": 5.32,
    "pinVerified": "TAK (Skorygowana)",
    "geoportalLink": "https://mapy.geoportal.gov.pl/imap/Imgp_2.html?locale=pl&gui=new&sessionID=&XY=800856.02,356857.94",
    "source": "curated",
    "osmMatch": null
  },
  {
    "originalId": 0,
    "name": "AGROTURYSTYKA KUBIKI",
    "region": "powiat bialski",
    "city": "Chotyłów",
    "address": "Cegielniana 11, 21-530 Chotyłów, Polska",
    "latitude": 51.9973627,
    "longitude": 23.367488500000004,
    "sortScore": 5.16,
    "pinVerified": "TAK (Skorygowana)",
    "geoportalLink": "https://mapy.geoportal.gov.pl/imap/Imgp_2.html?locale=pl&gui=new&sessionID=&XY=799688.17,468024.14",
    "source": "curated",
    "osmMatch": null
  },
  {
    "originalId": 0,
    "name": "ŁOWISKO WĘDKARSKIE SIEMIEŃ",
    "region": "powiat bialski",
    "city": "Siemień",
    "address": "Kasztanowa 38, 21-220 Siemień, Polska",
    "latitude": 51.632552399999994,
    "longitude": 22.773866599999998,
    "sortScore": 5.07,
    "pinVerified": "TAK (Skorygowana)",
    "geoportalLink": "https://mapy.geoportal.gov.pl/imap/Imgp_2.html?locale=pl&gui=new&sessionID=&XY=761072.3,425199.71",
    "source": "curated",
    "osmMatch": null
  },
  {
    "originalId": 0,
    "name": "Łowisko Radlnia",
    "region": "powiat bialski",
    "city": "Radlnia",
    "address": "Radlnia 14 R, 08-207, Polska",
    "latitude": 52.174760199999994,
    "longitude": 22.680878999999997,
    "sortScore": 4.68,
    "pinVerified": "TAK (Skorygowana)",
    "geoportalLink": "https://mapy.geoportal.gov.pl/imap/Imgp_2.html?locale=pl&gui=new&sessionID=&XY=751590.88,485128.34",
    "source": "curated",
    "osmMatch": null
  },
  {
    "originalId": 0,
    "name": "Stawy wyrzyckie",
    "region": "powiat bialski",
    "city": "Wyrzyki",
    "address": "Unnamed Road, 08-205 Wyrzyki, Polska",
    "latitude": 52.1967226,
    "longitude": 22.8762945,
    "sortScore": 4.54,
    "pinVerified": "TAK (Skorygowana)",
    "geoportalLink": "https://mapy.geoportal.gov.pl/imap/Imgp_2.html?locale=pl&gui=new&sessionID=&XY=764812.13,488265.55",
    "source": "curated",
    "osmMatch": null
  },
  {
    "originalId": 0,
    "name": "Łowisko /Staw Suchawa",
    "region": "powiat bialski",
    "city": "Suchawa",
    "address": "Suchawa 15, 22-200, Polska",
    "latitude": 51.5011146,
    "longitude": 23.428628699999997,
    "sortScore": 4.42,
    "pinVerified": "TAK (Skorygowana)",
    "geoportalLink": "https://mapy.geoportal.gov.pl/imap/Imgp_2.html?locale=pl&gui=new&sessionID=&XY=807234.97,413141.65",
    "source": "curated",
    "osmMatch": null
  },
  {
    "originalId": 0,
    "name": "Łowisko Specjalne \"Wykop",
    "region": "powiat bialski",
    "city": "Małaszewicze",
    "address": "Słoneczna 7, 21-540 Małaszewicze, Polska",
    "latitude": 52.0515932,
    "longitude": 23.5679835,
    "sortScore": 0.0,
    "pinVerified": "TAK (Skorygowana)",
    "geoportalLink": "https://mapy.geoportal.gov.pl/imap/Imgp_2.html?locale=pl&gui=new&sessionID=&XY=813059.39,474895.98",
    "source": "curated",
    "osmMatch": null
  },
  {
    "originalId": 0,
    "name": "Łowisko Pod Dębową Beczką",
    "region": "powiat białobrzeski",
    "city": "Kawęczyn",
    "address": "KAWĘCZYN, ul. Zatylna, 05-555 Kawęczyn, Polska",
    "latitude": 51.934445999999994,
    "longitude": 20.9130741,
    "sortScore": 5.44,
    "pinVerified": "TAK (Skorygowana)",
    "geoportalLink": "https://mapy.geoportal.gov.pl/imap/Imgp_2.html?locale=pl&gui=new&sessionID=&XY=631480.02,453748.77",
    "source": "curated",
    "osmMatch": null
  },
  {
    "originalId": 0,
    "name": "Gospodarstwo Rybackie Rembertów",
    "region": "powiat białobrzeski",
    "city": "Rembertów",
    "address": "Kościelna 14, 05-555 Rembertów, Polska",
    "latitude": 51.961608,
    "longitude": 20.833845900000004,
    "sortScore": 5.36,
    "pinVerified": "TAK (Skorygowana)",
    "geoportalLink": "https://mapy.geoportal.gov.pl/imap/Imgp_2.html?locale=pl&gui=new&sessionID=&XY=625959.22,456628.29",
    "source": "curated",
    "osmMatch": null
  },
  {
    "originalId": 0,
    "name": "Łowisko Komercyjne Wędkarska Kolonia Staw wędkarski Łowienie ryb",
    "region": "powiat białobrzeski",
    "city": "Czarna Kolonia",
    "address": "Czarna Kolonia 75, 26-670, Polska",
    "latitude": 51.4280149,
    "longitude": 21.443248,
    "sortScore": 5.3,
    "pinVerified": "TAK (Skorygowana)",
    "geoportalLink": "https://mapy.geoportal.gov.pl/imap/Imgp_2.html?locale=pl&gui=new&sessionID=&XY=669797.2,398544.82",
    "source": "curated",
    "osmMatch": null
  },
  {
    "originalId": 0,
    "name": "Łowisko OAZA",
    "region": "powiat białobrzeski",
    "city": "Opatkowice",
    "address": "Opatkowice 35, 26-900, Polska",
    "latitude": 51.6097775,
    "longitude": 21.5196979,
    "sortScore": 5.23,
    "pinVerified": "TAK (Skorygowana)",
    "geoportalLink": "https://mapy.geoportal.gov.pl/imap/Imgp_2.html?locale=pl&gui=new&sessionID=&XY=674413.46,418928.83",
    "source": "curated",
    "osmMatch": null
  },
  {
    "originalId": 0,
    "name": "Staw Zapadliska",
    "region": "powiat białobrzeski",
    "city": "Białobrzegi",
    "address": "Wczasowa, 05-126 Białobrzegi, Polska",
    "latitude": 52.4673868,
    "longitude": 21.0893113,
    "sortScore": 5.22,
    "pinVerified": "TAK (Skorygowana)",
    "geoportalLink": "https://mapy.geoportal.gov.pl/imap/Imgp_2.html?locale=pl&gui=new&sessionID=&XY=641883.12,513331.6",
    "source": "curated",
    "osmMatch": null
  },
  {
    "originalId": 0,
    "name": "Orońsko Sp. z o.o. Gospodarstwo rybackie",
    "region": "powiat białobrzeski",
    "city": "Orońsko",
    "address": "Topolowa 8A, 26-505 Orońsko, Polska",
    "latitude": 51.3121783,
    "longitude": 20.977409899999998,
    "sortScore": 5.15,
    "pinVerified": "TAK (Skorygowana)",
    "geoportalLink": "https://mapy.geoportal.gov.pl/imap/Imgp_2.html?locale=pl&gui=new&sessionID=&XY=637773.57,384691.26",
    "source": "curated",
    "osmMatch": null
  },
  {
    "originalId": 0,
    "name": "Stawy hodowlane",
    "region": "powiat białobrzeski",
    "city": "Gulin",
    "address": "26-652 Gulin, Polska",
    "latitude": 51.470912999999996,
    "longitude": 21.011865099999998,
    "sortScore": 4.95,
    "pinVerified": "TAK (Skorygowana)",
    "geoportalLink": "https://mapy.geoportal.gov.pl/imap/Imgp_2.html?locale=pl&gui=new&sessionID=&XY=639689.61,402401.9",
    "source": "curated",
    "osmMatch": null
  },
  {
    "originalId": 0,
    "name": "Kozia Wola Stawy",
    "region": "powiat białobrzeski",
    "city": "Kozia Wola",
    "address": "26-652 Kozia Wola, Polska",
    "latitude": 51.475703599999996,
    "longitude": 20.9869575,
    "sortScore": 4.9,
    "pinVerified": "TAK (Skorygowana)",
    "geoportalLink": "https://mapy.geoportal.gov.pl/imap/Imgp_2.html?locale=pl&gui=new&sessionID=&XY=637945.9,402887.22",
    "source": "curated",
    "osmMatch": null
  },
  {
    "originalId": 0,
    "name": "Łowisko Wędkarskie \"U Ani",
    "region": "powiat białobrzeski",
    "city": "Zalesie",
    "address": "Zalesie 29, 96-116, Polska",
    "latitude": 51.8530519,
    "longitude": 20.1513524,
    "sortScore": 4.67,
    "pinVerified": "TAK (Skorygowana)",
    "geoportalLink": "https://mapy.geoportal.gov.pl/imap/Imgp_2.html?locale=pl&gui=new&sessionID=&XY=579274.46,443596.77",
    "source": "curated",
    "osmMatch": null
  },
  {
    "originalId": 0,
    "name": "Łowisko Wilga",
    "region": "powiat białobrzeski",
    "city": "Nieznane",
    "address": "Unnamed Road, 08-470, Polska",
    "latitude": 51.841322299999995,
    "longitude": 21.389754099999998,
    "sortScore": 4.61,
    "pinVerified": "TAK (Skorygowana)",
    "geoportalLink": "https://mapy.geoportal.gov.pl/imap/Imgp_2.html?locale=pl&gui=new&sessionID=&XY=664576.69,444365.58",
    "source": "curated",
    "osmMatch": null
  },